[
  {
    "lng" : "4.1428327560425",
    "lat" : "52.01150069904",
    "country" : "Netherlands",
    "name" : "'s-Gravenzande"
  },
  {
    "lng" : "3.3628463745118",
    "lat" : "51.370923071145",
    "country" : "Belgium",
    "name" : "'t Zwin"
  },
  {
    "lng" : "18.407592773438",
    "lat" : "-33.671782783644",
    "country" : "South Africa, SW Coast",
    "name" : "11th Ave Melkbos Strand"
  },
  {
    "lng" : "-78.980884552002",
    "lat" : "33.595175061468",
    "country" : "USA, South East, South Carolina",
    "name" : "13th ave south surfside"
  },
  {
    "lng" : "144.4616317749",
    "lat" : "-38.285355481221",
    "country" : "Australia, VIC, Melbourne West",
    "name" : "13th beach"
  },
  {
    "lng" : "-80.608985424042",
    "lat" : "28.295557652054",
    "country" : "USA, South East, North Florida",
    "name" : "13th Street"
  },
  {
    "lng" : "-9.6858966350555",
    "lat" : "30.506121716054",
    "country" : "Morocco, South",
    "name" : "14th km."
  },
  {
    "lng" : "-117.26961135864",
    "lat" : "32.958805616471",
    "country" : "USA, California, San Diego County",
    "name" : "15th St."
  },
  {
    "lng" : "18.154660463333",
    "lat" : "-33.359011501838",
    "country" : "South Africa, West Coast",
    "name" : "16 MILE BEACH"
  },
  {
    "lng" : "-87.114865779877",
    "lat" : "30.335083520857",
    "country" : "USA, Gulf Coast, Florida",
    "name" : "17th Ave"
  },
  {
    "lng" : "-87.114865779877",
    "lat" : "30.335083520857",
    "country" : "USA, Gulf Coast, Florida",
    "name" : "17th Ave"
  },
  {
    "lng" : "-118.01432132721",
    "lat" : "33.663424992738",
    "country" : "USA, California, Orange County",
    "name" : "17th Street"
  },
  {
    "lng" : "-71.291527748108",
    "lat" : "41.487218449774",
    "country" : "USA, North East, Southern New England",
    "name" : "1st beach"
  },
  {
    "lng" : "-75.967771410942",
    "lat" : "36.830412875926",
    "country" : "USA, North East, Virginia",
    "name" : "1st Street Jetty"
  },
  {
    "lng" : "114.37447786331",
    "lat" : "-8.707180455719",
    "country" : "Indonesia, East Java",
    "name" : "20-20s"
  },
  {
    "lng" : "-123.19472908974",
    "lat" : "49.334964966094",
    "country" : "Canada, West Coast",
    "name" : "29th Street"
  },
  {
    "lng" : "-78.885655403137",
    "lat" : "33.683496610692",
    "country" : "USA, South East, South Carolina",
    "name" : "2nd Avenue Pier"
  },
  {
    "lng" : "-71.258418560028",
    "lat" : "41.487748890187",
    "country" : "USA, North East, Southern New England",
    "name" : "2nd Beach"
  },
  {
    "lng" : "152.59743690491",
    "lat" : "-31.966744587332",
    "country" : "Australia, NSW, Mid North Coast",
    "name" : "2nd corner"
  },
  {
    "lng" : "-80.603331327438",
    "lat" : "28.252735731286",
    "country" : "USA, South East, North Florida",
    "name" : "2nd Light"
  },
  {
    "lng" : "115.75018823147",
    "lat" : "-31.845587214995",
    "country" : "Australia, WA, Perth City",
    "name" : "2nds"
  },
  {
    "lng" : "-116.71371281147",
    "lat" : "31.897257421069",
    "country" : "Mexico, Baja Norte",
    "name" : "3 emes"
  },
  {
    "lng" : "-122.1173286438",
    "lat" : "36.961500196913",
    "country" : "USA, California, Santa Cruz",
    "name" : "3 Mile"
  },
  {
    "lng" : "150.54265022278",
    "lat" : "-35.24670558569",
    "country" : "Australia, NSW, South Coast",
    "name" : "3 way"
  },
  {
    "lng" : "138.46675515175",
    "lat" : "-35.177614339396",
    "country" : "Australia, SA, York Peninsula",
    "name" : "3-poles reef"
  },
  {
    "lng" : "-79.766889810562",
    "lat" : "32.795247488814",
    "country" : "USA, South East, South Carolina",
    "name" : "35th Street, IOP"
  },
  {
    "lng" : "-117.93722391129",
    "lat" : "33.615155376281",
    "country" : "USA, California, Orange County",
    "name" : "36th street"
  },
  {
    "lng" : "-74.685895442963",
    "lat" : "39.15717812309",
    "country" : "USA, North East, New Jersey",
    "name" : "36th Street"
  },
  {
    "lng" : "128.7326592207",
    "lat" : "38.006066734238",
    "country" : "South Korea",
    "name" : "38th Parallel"
  },
  {
    "lng" : "-74.386324882507",
    "lat" : "39.387917291121",
    "country" : "USA, North East, New Jersey",
    "name" : "38th St. Beach"
  },
  {
    "lng" : "18.444328308105",
    "lat" : "-33.772762043212",
    "country" : "South Africa, Cape Town",
    "name" : "3de Steen"
  },
  {
    "lng" : "115.74690520763",
    "lat" : "-31.833670075763",
    "country" : "Australia, WA, Perth City",
    "name" : "3rd Groyne"
  },
  {
    "lng" : "99.310655593872",
    "lat" : "-1.9091219602854",
    "country" : "Indonesia, Mentawai",
    "name" : "4 Bobs"
  },
  {
    "lng" : "-122.12505340576",
    "lat" : "36.965563579633",
    "country" : "USA, California, Santa Cruz",
    "name" : "4 Mile"
  },
  {
    "lng" : "-155.02799034119",
    "lat" : "19.735198843714",
    "country" : "USA, Hawaii, Hawaii Island",
    "name" : "4 Miles"
  },
  {
    "lng" : "-117.93889760971",
    "lat" : "33.617299678724",
    "country" : "USA, California, Orange County",
    "name" : "40th Street"
  },
  {
    "lng" : "-80.519651770592",
    "lat" : "7.2385158124997",
    "country" : "Panama",
    "name" : "411 (quatro-once)"
  },
  {
    "lng" : "-75.982003211975",
    "lat" : "36.870935151143",
    "country" : "USA, North East, Virginia",
    "name" : "42nd St. VA Beach"
  },
  {
    "lng" : "10.28497338295",
    "lat" : "43.638792795902",
    "country" : "Italy, Mainland",
    "name" : "46°"
  },
  {
    "lng" : "-78.844730257988",
    "lat" : "33.720658692791",
    "country" : "USA, South East, South Carolina",
    "name" : "48th st. Myrtle Beach"
  },
  {
    "lng" : "-75.06695151329",
    "lat" : "38.373230429205",
    "country" : "USA, North East, Virginia",
    "name" : "48th Street (Ocean City)"
  },
  {
    "lng" : "115.73548436165",
    "lat" : "-32.504749211233",
    "country" : "Australia, WA, Perth South",
    "name" : "4th groyne"
  },
  {
    "lng" : "-80.246887207031",
    "lat" : "-2.7312133615029",
    "country" : "Ecuador",
    "name" : "5 1 2km  &  8 1 2km"
  },
  {
    "lng" : "127.74185121059",
    "lat" : "26.331547281289",
    "country" : "Japan, Okinawa",
    "name" : "5 rocks"
  },
  {
    "lng" : "-117.94518470764",
    "lat" : "33.623223036949",
    "country" : "USA, California, Orange County",
    "name" : "56th St."
  },
  {
    "lng" : "-74.635705947876",
    "lat" : "39.221556798184",
    "country" : "USA, North East, New Jersey",
    "name" : "57th Street"
  },
  {
    "lng" : "-74.193077087402",
    "lat" : "39.62155713954",
    "country" : "USA, North East, New Jersey",
    "name" : "58th Street"
  },
  {
    "lng" : "-74.233160018921",
    "lat" : "39.564428398249",
    "country" : "USA, North East, New Jersey",
    "name" : "5th Street Beach Haven"
  },
  {
    "lng" : "25.655876398087",
    "lat" : "-33.978447519377",
    "country" : "South Africa, South East Port Elizabeth",
    "name" : "6 pillars"
  },
  {
    "lng" : "-74.098470211029",
    "lat" : "11.320374195181",
    "country" : "Colombia, Caribbean",
    "name" : "7 olas"
  },
  {
    "lng" : "126.09146118164",
    "lat" : "9.2442786704715",
    "country" : "Philippines, Mindanao",
    "name" : "7 rocks"
  },
  {
    "lng" : "-81.389041543007",
    "lat" : "30.296193427424",
    "country" : "USA, South East, North Florida",
    "name" : "7th Avenue"
  },
  {
    "lng" : "-75.989180803299",
    "lat" : "36.906794887097",
    "country" : "USA, North East, Virginia",
    "name" : "81st Street"
  },
  {
    "lng" : "-78.770309686661",
    "lat" : "33.770211362159",
    "country" : "USA, South East, South Carolina",
    "name" : "8th Ave n."
  },
  {
    "lng" : "-10.78841328621",
    "lat" : "6.2903422513069",
    "country" : "Liberia",
    "name" : "8th street"
  },
  {
    "lng" : "173.15380096436",
    "lat" : "-35.037586537405",
    "country" : "New Zealand, New Zealand NI, NW Coast",
    "name" : "90 Mile Beach"
  },
  {
    "lng" : "-73.812053203583",
    "lat" : "40.583330639749",
    "country" : "USA, North East, Long Island NY",
    "name" : "92nd Street"
  },
  {
    "lng" : "-8.8814163208008",
    "lat" : "42.454621116231",
    "country" : "Spain, Galicia",
    "name" : "A Lanzada"
  },
  {
    "lng" : "153.11654090881",
    "lat" : "-26.387564033081",
    "country" : "Australia, QLD, Sunshine Coast",
    "name" : "A-Bay"
  },
  {
    "lng" : "-120.86955428124",
    "lat" : "35.403165679424",
    "country" : "USA, California, San Luis Obispo",
    "name" : "A-Beach"
  },
  {
    "lng" : "12.065391540527",
    "lat" : "57.339215030548",
    "country" : "Sweden",
    "name" : "Å-land"
  },
  {
    "lng" : "-8.775200843811",
    "lat" : "41.390589886459",
    "country" : "Portugal, North Porto",
    "name" : "A-ver-o-mar"
  },
  {
    "lng" : "99.593939781189",
    "lat" : "-2.2784615120746",
    "country" : "Indonesia, Mentawai",
    "name" : "aaron's"
  },
  {
    "lng" : "-117.25699961185",
    "lat" : "32.713912773621",
    "country" : "USA, California, San Diego County",
    "name" : "Ab"
  },
  {
    "lng" : "-157.89822220802",
    "lat" : "21.302227031754",
    "country" : "USA, Hawaii, Oahu",
    "name" : "Abalolo Reef"
  },
  {
    "lng" : "-118.37602257729",
    "lat" : "33.737772743545",
    "country" : "USA, California, LA County",
    "name" : "Abalone Cove"
  },
  {
    "lng" : "-4.6327972412109",
    "lat" : "48.579247664664",
    "country" : "France, Brittany North",
    "name" : "Aber wrac'h point"
  },
  {
    "lng" : "-3.8109683990479",
    "lat" : "51.585325889366",
    "country" : "UK, South Wales",
    "name" : "Aberavon"
  },
  {
    "lng" : "-4.7035217285156",
    "lat" : "52.806497325082",
    "country" : "UK, North Wales and NW England",
    "name" : "Aberdaron"
  },
  {
    "lng" : "-2.0793342590332",
    "lat" : "57.164639439826",
    "country" : "UK, East Scotland",
    "name" : "Aberdeen"
  },
  {
    "lng" : "-13.290882110596",
    "lat" : "8.4910697360278",
    "country" : "Sierra Leone",
    "name" : "Aberdeen Area Beach"
  },
  {
    "lng" : "-4.5067977905273",
    "lat" : "52.823797664671",
    "country" : "UK, North Wales and NW England",
    "name" : "abersoch"
  },
  {
    "lng" : "-8.7821583333333",
    "lat" : "38.1761",
    "country" : "Portugal, South",
    "name" : "Aberta-A-Nova"
  },
  {
    "lng" : "25.480148792267",
    "lat" : "37.173294832662",
    "country" : "Greece, Greek Islands",
    "name" : "Abrami Beach"
  },
  {
    "lng" : "-32.400580644608",
    "lat" : "-3.8276018092756",
    "country" : "Brazil, Fernando do Noronha",
    "name" : "Abras"
  },
  {
    "lng" : "-59.590036869049",
    "lat" : "13.072674908698",
    "country" : "Barbados",
    "name" : "Accra Beach - Rockley Beach"
  },
  {
    "lng" : "-17.220082283022",
    "lat" : "32.851074236901",
    "country" : "Madeira",
    "name" : "Achadas da Cruz"
  },
  {
    "lng" : "-13.933839797974",
    "lat" : "28.74775223066",
    "country" : "Canary, Fuerte Ventura",
    "name" : "Acid Drop"
  },
  {
    "lng" : "150.90359508991",
    "lat" : "-34.411764714983",
    "country" : "Australia, NSW, Coal Coast",
    "name" : "Acids"
  },
  {
    "lng" : "28.085389137268",
    "lat" : "36.096256229045",
    "country" : "Greece, Greek Islands",
    "name" : "Acropolis"
  },
  {
    "lng" : "-0.59042930603027",
    "lat" : "54.48927378547",
    "country" : "UK, East England",
    "name" : "Admirals"
  },
  {
    "lng" : "73.100430965423",
    "lat" : "2.1840284347854",
    "country" : "Maldives",
    "name" : "Adonis"
  },
  {
    "lng" : "-9.4853210449219",
    "lat" : "38.803262951679",
    "country" : "Portugal, Central Lisboa",
    "name" : "Adraga"
  },
  {
    "lng" : "12.83333",
    "lat" : "42.83333",
    "country" : "Italy, Mainland",
    "name" : "Adria"
  },
  {
    "lng" : "15.67551612854",
    "lat" : "-27.930720752659",
    "country" : "Namibia",
    "name" : "Affenrucken point"
  },
  {
    "lng" : "97.229862213135",
    "lat" : "1.2597213423289",
    "country" : "Indonesia, Sumatra Islands",
    "name" : "Afulu"
  },
  {
    "lng" : "21.721343994141",
    "lat" : "36.806089202237",
    "country" : "Greece, Pelloponisos",
    "name" : "Agamemnon\/Kouloura Island"
  },
  {
    "lng" : "29.773292541504",
    "lat" : "31.127905409999",
    "country" : "Egypt",
    "name" : "Agami"
  },
  {
    "lng" : "-172.28722214699",
    "lat" : "-13.775086552996",
    "country" : "Samoa Western",
    "name" : "aganoa"
  },
  {
    "lng" : "-124.06293869019",
    "lat" : "44.653634735462",
    "country" : "USA, North West, Oregon Central",
    "name" : "Agate Beach"
  },
  {
    "lng" : "-124.06802415848",
    "lat" : "44.672269464147",
    "country" : "USA, North West, Oregon Central",
    "name" : "Agate Beach North"
  },
  {
    "lng" : "8.2212066650391",
    "lat" : "56.724760627408",
    "country" : "Denmark",
    "name" : "Agger"
  },
  {
    "lng" : "26.150853931904",
    "lat" : "35.196059014707",
    "country" : "Greece, Crete Island",
    "name" : "Agia Fotia"
  },
  {
    "lng" : "23.851211071014",
    "lat" : "37.805079445237",
    "country" : "Greece, Pelloponisos",
    "name" : "Agios Dimitrios"
  },
  {
    "lng" : "19.681148529053",
    "lat" : "39.714977900366",
    "country" : "Greece, Ionian Sea",
    "name" : "Agios Giorgios - Corfu"
  },
  {
    "lng" : "29.624741077423",
    "lat" : "41.175133104235",
    "country" : "Turkey, Black-Sea",
    "name" : "Aglayankaya"
  },
  {
    "lng" : "151.90894603729",
    "lat" : "-24.2082987206",
    "country" : "Australia, QLD, Central-Queensland",
    "name" : "Agnes Water"
  },
  {
    "lng" : "21.597098708153",
    "lat" : "37.215616932872",
    "country" : "Greece, Pelloponisos",
    "name" : "Agrili"
  },
  {
    "lng" : "-8.7876892089844",
    "lat" : "41.430371882653",
    "country" : "Portugal, North Porto",
    "name" : "Aguçadoura"
  },
  {
    "lng" : "-6.1167132854462",
    "lat" : "43.555017530652",
    "country" : "Spain, Asturias",
    "name" : "Aguilar"
  },
  {
    "lng" : "-84.653928279877",
    "lat" : "9.7226987535235",
    "country" : "Costa Rica, Pacific South",
    "name" : "Agujas"
  },
  {
    "lng" : "-71.70168042183",
    "lat" : "-33.398960177996",
    "country" : "Chile, Central Santiago",
    "name" : "Ahogados"
  },
  {
    "lng" : "27.94314622879",
    "lat" : "42.100903538971",
    "country" : "Bulgaria",
    "name" : "Ahtony"
  },
  {
    "lng" : "55.216770172119",
    "lat" : "-21.03700245061",
    "country" : "Reunion",
    "name" : "Aigrettes left"
  },
  {
    "lng" : "55.218060314655",
    "lat" : "-21.034471454763",
    "country" : "Reunion",
    "name" : "Aigrettes Right"
  },
  {
    "lng" : "1.8285799026489",
    "lat" : "41.23434893312",
    "country" : "Spain, Mediterranean",
    "name" : "Aiguadolc"
  },
  {
    "lng" : "-9.438929557801",
    "lat" : "52.984100257323",
    "country" : "Ireland, West",
    "name" : "Aileens"
  },
  {
    "lng" : "-7.6927015185356",
    "lat" : "33.58397348265",
    "country" : "Morocco, North",
    "name" : "Ain Diab Porte 15"
  },
  {
    "lng" : "-0.735901594161987",
    "lat" : "35.7377723171548",
    "country" : "Algeria",
    "name" : "Ain El Turk"
  },
  {
    "lng" : "-62.839522361755",
    "lat" : "17.907141018684",
    "country" : "St Barthelemy",
    "name" : "Airport left"
  },
  {
    "lng" : "73.1715631485",
    "lat" : "-0.70290051573316",
    "country" : "Maldives",
    "name" : "Airport right"
  },
  {
    "lng" : "174.80711460114",
    "lat" : "-41.337195167074",
    "country" : "New Zealand, New Zealand NI, SW Coast",
    "name" : "Airport Rights"
  },
  {
    "lng" : "115.15032291412",
    "lat" : "-8.7451238820147",
    "country" : "Indonesia, Bali",
    "name" : "Airport's"
  },
  {
    "lng" : "-8.7973852008581",
    "lat" : "37.806271187615",
    "country" : "Portugal, South",
    "name" : "Aivados"
  },
  {
    "lng" : "-3.0167770385742",
    "lat" : "43.381970926981",
    "country" : "Spain, Pais Vasco",
    "name" : "Aizkorri"
  },
  {
    "lng" : "-3.61323595047",
    "lat" : "43.498915778885",
    "country" : "Spain, Cantabria",
    "name" : "Ajo"
  },
  {
    "lng" : "137.2",
    "lat" : "34.6",
    "country" : "Japan, Shizuoka",
    "name" : "Akabane Long Beach"
  },
  {
    "lng" : "131.07247352601",
    "lat" : "31.39304689477",
    "country" : "Japan, Kyushu",
    "name" : "Akaehama"
  },
  {
    "lng" : "153.43377113342",
    "lat" : "-27.939806072151",
    "country" : "Australia, QLD, Gold Coast",
    "name" : "Akkorokamui"
  },
  {
    "lng" : "51.189225195265",
    "lat" : "43.620357021884",
    "country" : "Kazakhstan",
    "name" : "Aktau"
  },
  {
    "lng" : "-77.027689218521",
    "lat" : "-12.158970041003",
    "country" : "Peru, Lima",
    "name" : "Ala Moana"
  },
  {
    "lng" : "-157.84389138222",
    "lat" : "21.280876928092",
    "country" : "USA, Hawaii, Oahu",
    "name" : "Ala Moana Bowls"
  },
  {
    "lng" : "-157.85409986973",
    "lat" : "21.290653925976",
    "country" : "USA, Hawaii, Oahu",
    "name" : "Ala Moana Courts"
  },
  {
    "lng" : "-87.559399008751",
    "lat" : "30.270909835268",
    "country" : "USA, Gulf Coast, Alabama",
    "name" : "Alabama Point"
  },
  {
    "lng" : "26.310625076294",
    "lat" : "38.239056512811",
    "country" : "Turkey",
    "name" : "Alacati"
  },
  {
    "lng" : "32.023429870605",
    "lat" : "36.539674164695",
    "country" : "Turkey",
    "name" : "Alanya, Keykubat"
  },
  {
    "lng" : "8.1728249788284",
    "lat" : "44.004966212938",
    "country" : "Italy, Mainland",
    "name" : "Alassio"
  },
  {
    "lng" : "24.919867515564",
    "lat" : "-34.01023007159",
    "country" : "South Africa, South J Bay",
    "name" : "Albatross"
  },
  {
    "lng" : "8.2237815856934",
    "lat" : "44.041267596425",
    "country" : "Italy, Mainland",
    "name" : "Albenga"
  },
  {
    "lng" : "-8.2486832141876",
    "lat" : "37.085635324957",
    "country" : "Portugal, Algarve",
    "name" : "Albufeira"
  },
  {
    "lng" : "153.10962617397",
    "lat" : "-26.67079655546",
    "country" : "Australia, QLD, Sunshine Coast",
    "name" : "Alexandra Headlands"
  },
  {
    "lng" : "-57.542631626129",
    "lat" : "-37.993862916164",
    "country" : "Argentina, North",
    "name" : "Alfonsina"
  },
  {
    "lng" : "6.7029476165771",
    "lat" : "0.19355212618325",
    "country" : "Sao Tome",
    "name" : "alfonsita"
  },
  {
    "lng" : "8.8683700561523",
    "lat" : "42.608695487162",
    "country" : "France, Corsica",
    "name" : "Algajola"
  },
  {
    "lng" : "-116.88291527331",
    "lat" : "32.119226378654",
    "country" : "Mexico, Baja Norte",
    "name" : "alisitos"
  },
  {
    "lng" : "-73.994915485382",
    "lat" : "40.236327698893",
    "country" : "USA, North East, New Jersey",
    "name" : "Allenhurst"
  },
  {
    "lng" : "-70.881943702698",
    "lat" : "42.307022535158",
    "country" : "USA, North East, Southern New England",
    "name" : "allerton point"
  },
  {
    "lng" : "-16.192616666667",
    "lat" : "28.572066666667",
    "country" : "Canary, Tenerife",
    "name" : "Almáciga"
  },
  {
    "lng" : "-9.3146252632139",
    "lat" : "39.379027735574",
    "country" : "Portugal, Central Peniche",
    "name" : "Almagreira"
  },
  {
    "lng" : "25.709713697433",
    "lat" : "35.176781239347",
    "country" : "Greece, Crete Island",
    "name" : "Almiros"
  },
  {
    "lng" : "5.9666061401367",
    "lat" : "62.488538960577",
    "country" : "Norway",
    "name" : "Alnes Lighthouse (Godoy)"
  },
  {
    "lng" : "1.3844275474548",
    "lat" : "41.134403262325",
    "country" : "Spain, Mediterranean",
    "name" : "altafulla"
  },
  {
    "lng" : "8.5987758636475",
    "lat" : "46.994930103778",
    "country" : "Switzerland",
    "name" : "AlterSteinbeisser"
  },
  {
    "lng" : "144.83029872179",
    "lat" : "-37.873316282033",
    "country" : "Australia, VIC, Melbourne West",
    "name" : "Altona Pier"
  },
  {
    "lng" : "-8.5964584350586",
    "lat" : "37.122411988878",
    "country" : "Portugal, Algarve",
    "name" : "Alvor"
  },
  {
    "lng" : "21.426086425781",
    "lat" : "38.317955957945",
    "country" : "Greece, Ionian Sea",
    "name" : "alykes"
  },
  {
    "lng" : "49.149677753448",
    "lat" : "-18.859285337885",
    "country" : "Madagascar",
    "name" : "Ambila Lamentsa"
  },
  {
    "lng" : "-123.15171718597",
    "lat" : "49.325010107876",
    "country" : "Canada, West Coast",
    "name" : "Ambleside Park"
  },
  {
    "lng" : "-1.1524701118469",
    "lat" : "45.485274460199",
    "country" : "France, Gironde",
    "name" : "Amélie"
  },
  {
    "lng" : "20.506925582886",
    "lat" : "38.109235478584",
    "country" : "Greece, Ionian Sea",
    "name" : "Ammes Beach"
  },
  {
    "lng" : "-8.8454961776733",
    "lat" : "37.350031857736",
    "country" : "Portugal, Algarve",
    "name" : "Amoreira"
  },
  {
    "lng" : "-8.8240814208984",
    "lat" : "41.669321477922",
    "country" : "Portugal, North Porto",
    "name" : "Amorosa"
  },
  {
    "lng" : "20.478000640869",
    "lat" : "39.237704574584",
    "country" : "Greece, Ionian Sea",
    "name" : "Amoudia Left"
  },
  {
    "lng" : "-4.6751546859741",
    "lat" : "48.583449518456",
    "country" : "France, Brittany North",
    "name" : "Anaël"
  },
  {
    "lng" : "-159.30501937864",
    "lat" : "22.147612069583",
    "country" : "USA, Hawaii, Kauai",
    "name" : "Anahola Bay"
  },
  {
    "lng" : "32.935810089111",
    "lat" : "36.092667096616",
    "country" : "Turkey",
    "name" : "Anamur"
  },
  {
    "lng" : "178.31149578094",
    "lat" : "-38.23180909926",
    "country" : "New Zealand, New Zealand NI, East Cape",
    "name" : "Anaura Bay"
  },
  {
    "lng" : "-9.7267091274261",
    "lat" : "30.545205447904",
    "country" : "Morocco, South",
    "name" : "Anchor point"
  },
  {
    "lng" : "-105.51999092102",
    "lat" : "20.767871515293",
    "country" : "Mexico, Sinaloa-Nayarit",
    "name" : "Anclote"
  },
  {
    "lng" : "-82.825241088867",
    "lat" : "28.203675373165",
    "country" : "USA, Gulf Coast, Florida",
    "name" : "Anclote Island"
  },
  {
    "lng" : "-118.08087229729",
    "lat" : "33.722858369584",
    "country" : "USA, California, Orange County",
    "name" : "Anderson Street"
  },
  {
    "lng" : "-121.85778737068",
    "lat" : "36.281082371641",
    "country" : "USA, California, Monterey",
    "name" : "Andrew molera state beach"
  },
  {
    "lng" : "24.93754863739",
    "lat" : "37.840546585318",
    "country" : "Greece, Aegean Sea",
    "name" : "Andros (Hora)"
  },
  {
    "lng" : "149.90719199181",
    "lat" : "-16.972711518104",
    "country" : "Australia, QLD",
    "name" : "Andys' Peak"
  },
  {
    "lng" : "1.6067987680435",
    "lat" : "6.2288831603816",
    "country" : "Togo",
    "name" : "Aneho Beach"
  },
  {
    "lng" : "144.1865336895",
    "lat" : "-38.415644240658",
    "country" : "Australia, VIC, Melbourne West",
    "name" : "Anglesea"
  },
  {
    "lng" : "-1.5477848052979",
    "lat" : "43.494588519106",
    "country" : "France, Basque Country",
    "name" : "Anglet - Chambre d Amour"
  },
  {
    "lng" : "-1.52512550354",
    "lat" : "43.526521996549",
    "country" : "France, Basque Country",
    "name" : "Anglet - La Barre"
  },
  {
    "lng" : "-1.5354359149933",
    "lat" : "43.511990624463",
    "country" : "France, Basque Country",
    "name" : "Anglet - La Madrague"
  },
  {
    "lng" : "-1.5442811697721",
    "lat" : "43.499272316475",
    "country" : "France, Basque Country",
    "name" : "Anglet - Le club"
  },
  {
    "lng" : "-1.5265256166458",
    "lat" : "43.527968873805",
    "country" : "France, Basque Country",
    "name" : "Anglet - Le Furoncle"
  },
  {
    "lng" : "-1.5264129638672",
    "lat" : "43.523254726694",
    "country" : "France, Basque Country",
    "name" : "Anglet - Les Cavaliers"
  },
  {
    "lng" : "-1.5419054031373",
    "lat" : "43.501773467811",
    "country" : "France, Basque Country",
    "name" : "Anglet - Les Sables d'Or"
  },
  {
    "lng" : "-1.5398307144642",
    "lat" : "43.504988304257",
    "country" : "France, Basque Country",
    "name" : "Anglet - Marinella"
  },
  {
    "lng" : "153.36519241333",
    "lat" : "-29.486528293482",
    "country" : "Australia, NSW, North",
    "name" : "Angourie Lefts"
  },
  {
    "lng" : "153.36609363556",
    "lat" : "-29.482194837303",
    "country" : "Australia, NSW, North",
    "name" : "Angourie Point"
  },
  {
    "lng" : "15.54621219635",
    "lat" : "-27.74803760412",
    "country" : "Namibia",
    "name" : "Angras Juntas left"
  },
  {
    "lng" : "73.087450146575",
    "lat" : "17.843985205741",
    "country" : "India, North-West",
    "name" : "Anjarle"
  },
  {
    "lng" : "-25.156561732292",
    "lat" : "37.005414377655",
    "country" : "Azores, Eastern group",
    "name" : "Anjos"
  },
  {
    "lng" : "144.70294609666",
    "lat" : "-40.880654514106",
    "country" : "Australia, TAS",
    "name" : "Ann bay"
  },
  {
    "lng" : "-82.744345664978",
    "lat" : "27.538679957346",
    "country" : "USA, Gulf Coast, Florida",
    "name" : "Anna Maria Island"
  },
  {
    "lng" : "-82.743186950684",
    "lat" : "27.532781585779",
    "country" : "USA, Gulf Coast, Florida",
    "name" : "Anna Maria Island - Beach Streets"
  },
  {
    "lng" : "7.7824401855469",
    "lat" : "36.863141432953",
    "country" : "Algeria",
    "name" : "Annaba"
  },
  {
    "lng" : "24.833393096924",
    "lat" : "-34.162954490049",
    "country" : "South Africa, South J Bay",
    "name" : "Anne Avenue (St Francis Bay)"
  },
  {
    "lng" : "153.14012289047",
    "lat" : "-26.778449286564",
    "country" : "Australia, QLD, Sunshine Coast",
    "name" : "Anne street reef"
  },
  {
    "lng" : "-7.2829055786133",
    "lat" : "52.134330991635",
    "country" : "Ireland, South East",
    "name" : "Annestown"
  },
  {
    "lng" : "-122.31130599976",
    "lat" : "37.114472889827",
    "country" : "USA, California, Santa Cruz",
    "name" : "Ano Nuevo"
  },
  {
    "lng" : "-61.321134567261",
    "lat" : "16.240716490396",
    "country" : "Guadeloupe",
    "name" : "Anse à la barque"
  },
  {
    "lng" : "-61.332120895386",
    "lat" : "16.333483306775",
    "country" : "Guadeloupe",
    "name" : "Anse à la Bouelle"
  },
  {
    "lng" : "55.848205089569",
    "lat" : "-4.3508616221605",
    "country" : "Seychelles, La Digue",
    "name" : "Anse Banane"
  },
  {
    "lng" : "-61.511936187744",
    "lat" : "16.472715586517",
    "country" : "Guadeloupe",
    "name" : "Anse Bertrand"
  },
  {
    "lng" : "55.52166223526",
    "lat" : "-4.7593649789947",
    "country" : "Seychelles, Mahe",
    "name" : "Anse Bourgainville"
  },
  {
    "lng" : "-61.014740467072",
    "lat" : "14.807828116388",
    "country" : "Martinique",
    "name" : "Anse Charpentier (right)"
  },
  {
    "lng" : "55.851702690125",
    "lat" : "-4.3670366994987",
    "country" : "Seychelles, La Digue",
    "name" : "Anse Cocos"
  },
  {
    "lng" : "-61.21946811676",
    "lat" : "14.844004427128",
    "country" : "Martinique",
    "name" : "Anse Couleuvre"
  },
  {
    "lng" : "-62.843234539032",
    "lat" : "17.911398157806",
    "country" : "St Barthelemy",
    "name" : "Anse des Cayes"
  },
  {
    "lng" : "-62.847145199776",
    "lat" : "17.917166060902",
    "country" : "St Barthelemy",
    "name" : "Anse des Lézards"
  },
  {
    "lng" : "-1.4872097969055",
    "lat" : "49.668836050314",
    "country" : "France, Normandy",
    "name" : "Anse du Brick"
  },
  {
    "lng" : "-4.306640625",
    "lat" : "48.09459164291",
    "country" : "France, Brittany South",
    "name" : "Anse du Ris"
  },
  {
    "lng" : "55.484089851379",
    "lat" : "-4.7605196970203",
    "country" : "Seychelles, Mahe",
    "name" : "Anse Gaulette"
  },
  {
    "lng" : "55.683506727219",
    "lat" : "-4.309384657439",
    "country" : "Seychelles, Pralin",
    "name" : "Anse Kerlan"
  },
  {
    "lng" : "55.833849906921",
    "lat" : "-4.3376602763675",
    "country" : "Seychelles, La Digue",
    "name" : "Anse Patates"
  },
  {
    "lng" : "55.521039962769",
    "lat" : "-4.7470906343883",
    "country" : "Seychelles, Mahe",
    "name" : "Anse Royale"
  },
  {
    "lng" : "-61.305288076401",
    "lat" : "16.326811493739",
    "country" : "Guadeloupe",
    "name" : "Anse Salabouelle"
  },
  {
    "lng" : "55.829772949219",
    "lat" : "-4.3398526716275",
    "country" : "Seychelles, La Digue",
    "name" : "Anse Sevére"
  },
  {
    "lng" : "55.465357303619",
    "lat" : "-4.7446368084524",
    "country" : "Seychelles, Mahe",
    "name" : "Anse Soleil"
  },
  {
    "lng" : "-1.8890959024429",
    "lat" : "49.706571106456",
    "country" : "France, Normandy",
    "name" : "Anse st Martin"
  },
  {
    "lng" : "-60.848722457888",
    "lat" : "14.406666601156",
    "country" : "Martinique",
    "name" : "Anse Trabaud"
  },
  {
    "lng" : "11.27744436264",
    "lat" : "42.414633235653",
    "country" : "Italy, Mainland",
    "name" : "Ansedonia - Il Cartello"
  },
  {
    "lng" : "159.07104492188",
    "lat" : "-31.541089879586",
    "country" : "Australia, NSW, North",
    "name" : "Anson Bay"
  },
  {
    "lng" : "31.019167900085",
    "lat" : "-29.925611712635",
    "country" : "South Africa, Durban",
    "name" : "Ansteys Beach"
  },
  {
    "lng" : "30.808721780777",
    "lat" : "36.84716096681",
    "country" : "Turkey",
    "name" : "Antalya"
  },
  {
    "lng" : "6.7605037987232",
    "lat" : "0.29636802239488",
    "country" : "Sao Tome",
    "name" : "Antenas"
  },
  {
    "lng" : "-61.539659500122",
    "lat" : "16.434191729997",
    "country" : "Guadeloupe",
    "name" : "Antigues Cape"
  },
  {
    "lng" : "73.445985317232",
    "lat" : "0.28187027719828",
    "country" : "Maldives",
    "name" : "Antiques"
  },
  {
    "lng" : "-119.76136207581",
    "lat" : "49.74052691281",
    "country" : "Canada, East Coast",
    "name" : "Antlers beach"
  },
  {
    "lng" : "-9.663119316101",
    "lat" : "30.450301516492",
    "country" : "Morocco, South",
    "name" : "Anza"
  },
  {
    "lng" : "145.33329606056",
    "lat" : "-38.538053729395",
    "country" : "Australia, VIC, Melbourne East",
    "name" : "Anzacs"
  },
  {
    "lng" : "131.46720886233",
    "lat" : "31.805133175948",
    "country" : "Japan, Kyushu",
    "name" : "Aoshima beach break"
  },
  {
    "lng" : "131.47793769837",
    "lat" : "31.802719931943",
    "country" : "Japan, Kyushu",
    "name" : "Aoshima Reef"
  },
  {
    "lng" : "-78.78128528595",
    "lat" : "33.762451830623",
    "country" : "USA, South East, South Carolina",
    "name" : "apache pier"
  },
  {
    "lng" : "121.62693500519",
    "lat" : "18.360757424784",
    "country" : "Philippines, Luzon",
    "name" : "Aparri"
  },
  {
    "lng" : "105.13066291809",
    "lat" : "-6.6146481192023",
    "country" : "Indonesia, West Java",
    "name" : "Apocalypse"
  },
  {
    "lng" : "143.67053031921",
    "lat" : "-38.750401800229",
    "country" : "Australia, VIC, Melbourne West",
    "name" : "Apollo Bay"
  },
  {
    "lng" : "25.55419921875",
    "lat" : "37.180013938902",
    "country" : "Greece, Aegean Sea",
    "name" : "Apollonas. Naxos"
  },
  {
    "lng" : "34.806543588638",
    "lat" : "32.194108801119",
    "country" : "Israel",
    "name" : "apolonia"
  },
  {
    "lng" : "174.06184673309",
    "lat" : "-39.054217912175",
    "country" : "New Zealand, New Zealand NI, West Coast Taranaki",
    "name" : "Aquatic centre"
  },
  {
    "lng" : "-4.3695116043091",
    "lat" : "47.826130940833",
    "country" : "France, Brittany South",
    "name" : "Ar Loïs"
  },
  {
    "lng" : "-37.041145563126",
    "lat" : "-10.987673858847",
    "country" : "Brazil, Sergipe-Alagoas",
    "name" : "Aracaju"
  },
  {
    "lng" : "-54.148693084717",
    "lat" : "-34.622216618832",
    "country" : "Uruguay",
    "name" : "Arachania"
  },
  {
    "lng" : "73.702812194824",
    "lat" : "15.687170643174",
    "country" : "India, North-West",
    "name" : "Arambol"
  },
  {
    "lng" : "170.71058750153",
    "lat" : "-45.776114080263",
    "country" : "New Zealand, New Zealand SI, SE Coast",
    "name" : "Aramoana"
  },
  {
    "lng" : "-48.483266830444",
    "lat" : "-0.68851721139236",
    "country" : "Brazil, Para",
    "name" : "Araruna"
  },
  {
    "lng" : "-70.053977966309",
    "lat" : "12.620069905345",
    "country" : "Aruba",
    "name" : "Arashi"
  },
  {
    "lng" : "173.80169391632",
    "lat" : "-39.419751182341",
    "country" : "New Zealand, New Zealand NI, West Coast Taranaki",
    "name" : "Arawahata Road"
  },
  {
    "lng" : "-123.96208763123",
    "lat" : "45.84688799709",
    "country" : "USA, North West, Oregon North",
    "name" : "Arcadia"
  },
  {
    "lng" : "30.768488645554",
    "lat" : "46.428266448388",
    "country" : "Ukraine",
    "name" : "Arcadia"
  },
  {
    "lng" : "152.47800350189",
    "lat" : "-24.846954777011",
    "country" : "Australia, QLD, North West",
    "name" : "Archies"
  },
  {
    "lng" : "-10.175635814667",
    "lat" : "51.803340887186",
    "country" : "Ireland, South West",
    "name" : "Ardkeragh"
  },
  {
    "lng" : "-25.548534393311",
    "lat" : "37.817785166068",
    "country" : "Azores, Eastern group",
    "name" : "Areias"
  },
  {
    "lng" : "34.840693473816",
    "lat" : "32.302332616174",
    "country" : "Israel",
    "name" : "Argaman's Beach"
  },
  {
    "lng" : "3.0463242530823",
    "lat" : "42.567304804259",
    "country" : "France, Mediterranean",
    "name" : "Argelès-Sur-Mer"
  },
  {
    "lng" : "-15.679008364677",
    "lat" : "27.755263103826",
    "country" : "Canary, Gran Canaria",
    "name" : "Arguineguin"
  },
  {
    "lng" : "99.565315246582",
    "lat" : "-2.0248393153862",
    "country" : "Indonesia, Mentawai",
    "name" : "Ariks"
  },
  {
    "lng" : "27.732646465302",
    "lat" : "42.336452631426",
    "country" : "Bulgaria",
    "name" : "Arkutino"
  },
  {
    "lng" : "7.8457832336426",
    "lat" : "43.825564149427",
    "country" : "Italy, Mainland",
    "name" : "Arma di Taggia"
  },
  {
    "lng" : "-48.508114814758",
    "lat" : "-27.74161875553",
    "country" : "Brazil, Florianopolis",
    "name" : "Armação"
  },
  {
    "lng" : "122.84337472943",
    "lat" : "-10.979490259192",
    "country" : "Indonesia, Savu Sea",
    "name" : "Army Camp"
  },
  {
    "lng" : "-1.376895904541",
    "lat" : "43.911590055914",
    "country" : "France, Landes",
    "name" : "Arna plage"
  },
  {
    "lng" : "-119.1592168808",
    "lat" : "34.120722501063",
    "country" : "USA, California, Ventura",
    "name" : "Arnold"
  },
  {
    "lng" : "-43.191654682159",
    "lat" : "-22.989913491412",
    "country" : "Brazil, Rio de Janeiro City",
    "name" : "Arpoador"
  },
  {
    "lng" : "-42.030054330826",
    "lat" : "-22.94266505616",
    "country" : "Brazil, Rio de Janeiro Norte",
    "name" : "Arraial do Cabo"
  },
  {
    "lng" : "153.20348739624",
    "lat" : "-30.058694253064",
    "country" : "Australia, NSW, Banana Coast",
    "name" : "Arrawarra point"
  },
  {
    "lng" : "-13.464206457138",
    "lat" : "29.128115550847",
    "country" : "Canary, Lanzarote",
    "name" : "Arrieta"
  },
  {
    "lng" : "-8.8712453842163",
    "lat" : "37.294437475046",
    "country" : "Portugal, Algarve",
    "name" : "Arrifana"
  },
  {
    "lng" : "-3.0222702026367",
    "lat" : "43.35813671795",
    "country" : "Spain, Pais Vasco",
    "name" : "Arrigunaga"
  },
  {
    "lng" : "-49.415302276611",
    "lat" : "-28.993802278359",
    "country" : "Brazil, Santa Catarina",
    "name" : "Arroio do Silva"
  },
  {
    "lng" : "-104.94571387767",
    "lat" : "19.317223926365",
    "country" : "Mexico, Jalisco",
    "name" : "Arroyo seco"
  },
  {
    "lng" : "115.74842333794",
    "lat" : "-32.01574505646",
    "country" : "Australia, WA, Perth City",
    "name" : "Artificial reef"
  },
  {
    "lng" : "81.839475631714",
    "lat" : "6.8400857398803",
    "country" : "Sri Lanka",
    "name" : "Arugam Bay"
  },
  {
    "lng" : "12.093887329102",
    "lat" : "57.336250446713",
    "country" : "Sweden",
    "name" : "Åsa (Aasa)"
  },
  {
    "lng" : "-73.99530172348",
    "lat" : "40.228136953567",
    "country" : "USA, North East, New Jersey",
    "name" : "Asbury Park"
  },
  {
    "lng" : "-87.354440689087",
    "lat" : "12.625095278624",
    "country" : "Nicaragua",
    "name" : "Aserradores"
  },
  {
    "lng" : "34.640128612518",
    "lat" : "31.817389186786",
    "country" : "Israel",
    "name" : "Ashdod -hshover"
  },
  {
    "lng" : "39.263682961464",
    "lat" : "43.956599301375",
    "country" : "Russia, Black Sea",
    "name" : "Ashe"
  },
  {
    "lng" : "-76.608180999756",
    "lat" : "-12.778321565438",
    "country" : "Peru, Lima",
    "name" : "Asia - Palmas"
  },
  {
    "lng" : "-76.555910110474",
    "lat" : "-12.819501030525",
    "country" : "Peru, Lima",
    "name" : "Asia del Mar"
  },
  {
    "lng" : "-121.94275438786",
    "lat" : "36.618016332942",
    "country" : "USA, California, Monterey",
    "name" : "Asilomar"
  },
  {
    "lng" : "149.9149274826",
    "lat" : "-37.053379021789",
    "country" : "Australia, NSW, Far South",
    "name" : "Asling's Beach"
  },
  {
    "lng" : "-75.146741867065",
    "lat" : "38.206892714171",
    "country" : "USA, North East, Virginia",
    "name" : "Assateague"
  },
  {
    "lng" : "-3.2908344268799",
    "lat" : "5.1256530269629",
    "country" : "Ivory Coast",
    "name" : "Assinie"
  },
  {
    "lng" : "-3.4291076660156",
    "lat" : "5.151469719002",
    "country" : "Ivory Coast",
    "name" : "Assouinde Beach"
  },
  {
    "lng" : "-86.17169380188",
    "lat" : "11.512406513805",
    "country" : "Nicaragua",
    "name" : "Astillero"
  },
  {
    "lng" : "-46.266474723816",
    "lat" : "-24.007737505859",
    "country" : "Brazil, Sao Paulo North Coast",
    "name" : "Astúrias"
  },
  {
    "lng" : "97.333545684814",
    "lat" : "0.86737180600208",
    "country" : "Indonesia, Sumatra Islands",
    "name" : "Asu"
  },
  {
    "lng" : "-86.620797222222",
    "lat" : "11.933988888889",
    "country" : "Nicaragua",
    "name" : "Asunchillo"
  },
  {
    "lng" : "-79.8486328125",
    "lat" : "0.8765546261554",
    "country" : "Ecuador",
    "name" : "Atacames"
  },
  {
    "lng" : "136.41509056091",
    "lat" : "36.419348580955",
    "country" : "Japan, West Coast",
    "name" : "Ataka"
  },
  {
    "lng" : "-48.639360666275",
    "lat" : "-26.915162996298",
    "country" : "Brazil, Santa Catarina North",
    "name" : "Atalaia"
  },
  {
    "lng" : "136.14858627319",
    "lat" : "33.928904251145",
    "country" : "Japan, Kii Hanto",
    "name" : "Atashika"
  },
  {
    "lng" : "24.839079380035",
    "lat" : "37.910397027122",
    "country" : "Greece, Aegean Sea",
    "name" : "Ateni Beach"
  },
  {
    "lng" : "-76.740833333333",
    "lat" : "34.700555555556",
    "country" : "USA, South East, North Carolina",
    "name" : "Atlantic Beach"
  },
  {
    "lng" : "-16.529799699783",
    "lat" : "28.049541964101",
    "country" : "Canary, Tenerife",
    "name" : "Atlantic Playa"
  },
  {
    "lng" : "-50.022554397583",
    "lat" : "-29.784715833632",
    "country" : "Brazil, Rio Grande do Sul",
    "name" : "Atlântida - Pier"
  },
  {
    "lng" : "29.92635011673",
    "lat" : "60.143774774572",
    "country" : "Russia, Finnish Bay",
    "name" : "Atlantis"
  },
  {
    "lng" : "-4.5475673675537",
    "lat" : "48.009276381517",
    "country" : "France, Brittany South",
    "name" : "Audierne - La Gamelle"
  },
  {
    "lng" : "-4.5407652854919",
    "lat" : "48.009400316321",
    "country" : "France, Brittany South",
    "name" : "Audierne - La Jetée"
  },
  {
    "lng" : "1.5920412540436",
    "lat" : "50.821580525157",
    "country" : "France, Normandy",
    "name" : "Audreselles"
  },
  {
    "lng" : "x",
    "lat" : "x",
    "country" : "Samoa Western",
    "name" : "Aufuga"
  },
  {
    "lng" : "115.17954826355",
    "lat" : "-34.324583089158",
    "country" : "Australia, WA, Margaret River South",
    "name" : "Augusta Rivermouth"
  },
  {
    "lng" : "150.93571722507",
    "lat" : "-34.306736188612",
    "country" : "Australia, NSW, Coal Coast",
    "name" : "Austinmer Beach"
  },
  {
    "lng" : "150.93586206436",
    "lat" : "-34.307852838836",
    "country" : "Australia, NSW, Coal Coast",
    "name" : "Austinmer pools"
  },
  {
    "lng" : "25.669512748718",
    "lat" : "-33.982495496277",
    "country" : "South Africa, South East Port Elizabeth",
    "name" : "Avalanche"
  },
  {
    "lng" : "-117.25529909133",
    "lat" : "32.75212725693",
    "country" : "USA, California, San Diego County",
    "name" : "Avalanche"
  },
  {
    "lng" : "-124.07905340195",
    "lat" : "44.678830636948",
    "country" : "USA, North West, Oregon Central",
    "name" : "Avalanche"
  },
  {
    "lng" : "-158.11472609638",
    "lat" : "21.595267725663",
    "country" : "USA, Hawaii, Oahu",
    "name" : "Avalanche Oahu"
  },
  {
    "lng" : "-74.709123373032",
    "lat" : "39.102607211263",
    "country" : "USA, North East, New Jersey",
    "name" : "Avalon - 15th Street"
  },
  {
    "lng" : "-74.718511104584",
    "lat" : "39.09266554485",
    "country" : "USA, North East, New Jersey",
    "name" : "Avalon - 30th Street"
  },
  {
    "lng" : "115.63802361488",
    "lat" : "-32.592391872321",
    "country" : "Australia, WA, Perth South",
    "name" : "Avalon Point"
  },
  {
    "lng" : "-147.71006584168",
    "lat" : "-14.936295009734",
    "country" : "French Polynesia, Tuamotu Islands",
    "name" : "Avatoru Pass, Rangiroa"
  },
  {
    "lng" : "-71.276700496674",
    "lat" : "-29.918544676663",
    "country" : "Chile, Coquimbo",
    "name" : "Avenida del mar"
  },
  {
    "lng" : "-44.304428100586",
    "lat" : "-23.180132370708",
    "country" : "Brazil, Rio de Janeiro Norte",
    "name" : "Aventureiro"
  },
  {
    "lng" : "-8.740257024765",
    "lat" : "43.293680567165",
    "country" : "Spain, Galicia",
    "name" : "Aviño"
  },
  {
    "lng" : "-65.956892967224",
    "lat" : "18.45270260654",
    "country" : "Puerto Rico",
    "name" : "Aviones"
  },
  {
    "lng" : "151.43764972687",
    "lat" : "-33.469629428154",
    "country" : "Australia, NSW, Central",
    "name" : "Avoca Point"
  },
  {
    "lng" : "-2.2458028793335",
    "lat" : "4.8581504642157",
    "country" : "Ghana",
    "name" : "Axim"
  },
  {
    "lng" : "-80.815773010254",
    "lat" : "-1.6798949897108",
    "country" : "Ecuador",
    "name" : "Ayampe"
  },
  {
    "lng" : "-1.1487901210785",
    "lat" : "46.131999046876",
    "country" : "France, Charente maritime",
    "name" : "Aytré - lopette beach"
  },
  {
    "lng" : "131.06303885577",
    "lat" : "30.682475602235",
    "country" : "Japan, Kyushu, Tanegashima-Island",
    "name" : "Azako"
  },
  {
    "lng" : "-8.7446933984756",
    "lat" : "41.338931123836",
    "country" : "Portugal, North Porto",
    "name" : "Azurara"
  },
  {
    "lng" : "125.05249142646",
    "lat" : "-8.8269722080643",
    "country" : "East Timor",
    "name" : "B-point"
  },
  {
    "lng" : "-157.84955620766",
    "lat" : "21.284615856797",
    "country" : "USA, Hawaii, Oahu",
    "name" : "Baby Haleiwa's"
  },
  {
    "lng" : "-157.66544669867",
    "lat" : "21.315820705688",
    "country" : "USA, Hawaii, Oahu",
    "name" : "Baby Makapuu"
  },
  {
    "lng" : "6.1634320020676",
    "lat" : "46.208790665526",
    "country" : "Switzerland",
    "name" : "Baby Plage"
  },
  {
    "lng" : "31.390857696533",
    "lat" : "36.772511215315",
    "country" : "Turkey",
    "name" : "Baby Point Side"
  },
  {
    "lng" : "114.61177825928",
    "lat" : "-28.794139286043",
    "country" : "Australia, WA, Perth North",
    "name" : "Back beach"
  },
  {
    "lng" : "174.0150743723",
    "lat" : "-39.06826338817",
    "country" : "New Zealand, New Zealand NI, West Coast Taranaki",
    "name" : "Back Beach"
  },
  {
    "lng" : "-6.1113810539246",
    "lat" : "53.481840266285",
    "country" : "Ireland, North East and East",
    "name" : "back beach"
  },
  {
    "lng" : "152.40775108337",
    "lat" : "-32.49542915368",
    "country" : "Australia, NSW, Newcastle",
    "name" : "Back Bommie"
  },
  {
    "lng" : "152.1356678009",
    "lat" : "-32.681718857913",
    "country" : "Australia, NSW, Mid North Coast",
    "name" : "Back Jimmys"
  },
  {
    "lng" : "151.57284915447",
    "lat" : "-33.279260933822",
    "country" : "Australia, NSW, Central",
    "name" : "Backdoor"
  },
  {
    "lng" : "-158.05210590363",
    "lat" : "21.667678489776",
    "country" : "USA, Hawaii, Oahu",
    "name" : "Backdoor"
  },
  {
    "lng" : "-42.472313046455",
    "lat" : "-22.938421471373",
    "country" : "Brazil, Rio de Janeiro Norte",
    "name" : "Backdoor"
  },
  {
    "lng" : "13.393814563751",
    "lat" : "37.333194071459",
    "country" : "Italy, Sicily",
    "name" : "Backdoor"
  },
  {
    "lng" : "-39.00146484375",
    "lat" : "-14.840602783968",
    "country" : "Brazil, Bahia Sul",
    "name" : "Backdoor"
  },
  {
    "lng" : "34.979524612427",
    "lat" : "32.835516251146",
    "country" : "Israel",
    "name" : "BackDoor (Haifa)"
  },
  {
    "lng" : "153.607878685",
    "lat" : "-28.843470765934",
    "country" : "Australia, NSW, North",
    "name" : "Backsides"
  },
  {
    "lng" : "-83.279113769531",
    "lat" : "8.3914597996759",
    "country" : "Costa Rica, Pacific South",
    "name" : "Backwash"
  },
  {
    "lng" : "-81.261041164398",
    "lat" : "29.811273463702",
    "country" : "USA, South East, North Florida",
    "name" : "Backyard OG (ocean gallery)"
  },
  {
    "lng" : "8.8536071777344",
    "lat" : "40.982101130655",
    "country" : "Italy, Sicily Sardinia",
    "name" : "Badesi"
  },
  {
    "lng" : "126.05833053589",
    "lat" : "9.2311474526738",
    "country" : "Philippines, Siargao Islands",
    "name" : "Badjang"
  },
  {
    "lng" : "-9.3661746382713",
    "lat" : "38.692226039287",
    "country" : "Portugal, Central Lisboa",
    "name" : "Bafureira"
  },
  {
    "lng" : "122.98421859741",
    "lat" : "14.1375744263",
    "country" : "Philippines, Luzon",
    "name" : "Bagasbas Beach"
  },
  {
    "lng" : "30.872569084167",
    "lat" : "-30.078940183934",
    "country" : "South Africa, Durban",
    "name" : "Baggies"
  },
  {
    "lng" : "30.873073339462",
    "lat" : "-30.078462054469",
    "country" : "South Africa, Hibiscous Coast",
    "name" : "Baggies"
  },
  {
    "lng" : "10.312685966492",
    "lat" : "43.519613846119",
    "country" : "Italy, Mainland",
    "name" : "bagni Fiume ( Livorno )"
  },
  {
    "lng" : "10.320453643799",
    "lat" : "43.496830016122",
    "country" : "Italy, Mainland",
    "name" : "Bagni Roma"
  },
  {
    "lng" : "14.445390701294",
    "lat" : "35.951920450497",
    "country" : "Malta",
    "name" : "Bahar ic-Caghaq"
  },
  {
    "lng" : "109.19616222382",
    "lat" : "12.11603331326",
    "country" : "Vietnam",
    "name" : "Bai Dai Beach, Nha Trang"
  },
  {
    "lng" : "-9.3558025360107",
    "lat" : "39.366487557215",
    "country" : "Portugal, Central Peniche",
    "name" : "Baía"
  },
  {
    "lng" : "-27.185904979706",
    "lat" : "38.793764215381",
    "country" : "Azores, Central group",
    "name" : "Baia das Quatro Ribeiras"
  },
  {
    "lng" : "-35.014801025391",
    "lat" : "-6.3669937103283",
    "country" : "Brazil, Rio Grande Do Norte",
    "name" : "Baia Formosa"
  },
  {
    "lng" : "-4.7066974639893",
    "lat" : "48.047791891609",
    "country" : "France, Brittany South",
    "name" : "Baie des Trépassés"
  },
  {
    "lng" : "-71.311976909637",
    "lat" : "41.45568963371",
    "country" : "USA, North East, Southern New England",
    "name" : "Bailey's Beach"
  },
  {
    "lng" : "18.466687202454",
    "lat" : "-34.112337526938",
    "country" : "South Africa, Cape Town",
    "name" : "Baileys cottage"
  },
  {
    "lng" : "134.36931610107",
    "lat" : "-33.179801304273",
    "country" : "Australia, SA, Eyre Peninsula",
    "name" : "Baird Bay Reef"
  },
  {
    "lng" : "-27.12751865387",
    "lat" : "38.791288984624",
    "country" : "Azores, Central group",
    "name" : "Baixa da Vila Nova"
  },
  {
    "lng" : "-117.09575",
    "lat" : "32.419503",
    "country" : "Mexico, Baja Norte",
    "name" : "Baja Malibu"
  },
  {
    "lng" : "-84.701156616211",
    "lat" : "9.858852323208",
    "country" : "Costa Rica, Pacific South",
    "name" : "Bajamar"
  },
  {
    "lng" : "-16.34035",
    "lat" : "28.5572",
    "country" : "Canary, Tenerife",
    "name" : "Bajamar"
  },
  {
    "lng" : "-71.069033145905",
    "lat" : "41.508230212111",
    "country" : "USA, North East, Southern New England",
    "name" : "Baker's beach"
  },
  {
    "lng" : "-2.8050112724304",
    "lat" : "43.432244712061",
    "country" : "Spain, Pais Vasco",
    "name" : "Bakio"
  },
  {
    "lng" : "115.11981010437",
    "lat" : "-8.7922455493342",
    "country" : "Indonesia, Bali",
    "name" : "Balangan"
  },
  {
    "lng" : "-79.676413536072",
    "lat" : "0.98453683098455",
    "country" : "Ecuador",
    "name" : "Balao"
  },
  {
    "lng" : "-81.325360536575",
    "lat" : "-4.6675854681255",
    "country" : "Peru, North",
    "name" : "Balconies"
  },
  {
    "lng" : "-77.98885345459",
    "lat" : "33.851314331555",
    "country" : "USA, South East, Southern North Carolina",
    "name" : "Bald Head Island- Point"
  },
  {
    "lng" : "146.86938643456",
    "lat" : "-19.11020232485",
    "country" : "Australia, QLD, Far North West",
    "name" : "Balding Bay"
  },
  {
    "lng" : "-156.39304161072",
    "lat" : "20.914704557826",
    "country" : "USA, Hawaii, Maui",
    "name" : "Baldwin beach"
  },
  {
    "lng" : "-9.3424129486084",
    "lat" : "39.367217470593",
    "country" : "Portugal, Central Peniche",
    "name" : "Baleal"
  },
  {
    "lng" : "-9.3556308746338",
    "lat" : "39.361477491336",
    "country" : "Portugal, Central Peniche",
    "name" : "Baleal Sul"
  },
  {
    "lng" : "-45.670216666667",
    "lat" : "-23.7776",
    "country" : "Brazil, Sao Paulo North Coast",
    "name" : "Baleia"
  },
  {
    "lng" : "121.56784057617",
    "lat" : "15.753927728168",
    "country" : "Philippines, Luzon",
    "name" : "Baler"
  },
  {
    "lng" : "18.37050318718",
    "lat" : "-33.97281561771",
    "country" : "South Africa, Cape Town",
    "name" : "Bali Bay"
  },
  {
    "lng" : "115.23164749146",
    "lat" : "-8.7848235413657",
    "country" : "Indonesia, Bali",
    "name" : "Bali Tropic"
  },
  {
    "lng" : "114.98971223831",
    "lat" : "-8.5242814660468",
    "country" : "Indonesia, Bali",
    "name" : "Balian"
  },
  {
    "lng" : "167.98559188843",
    "lat" : "-29.051442806365",
    "country" : "Australia, Norfolk Island",
    "name" : "Ball Bay"
  },
  {
    "lng" : "-66.857299804688",
    "lat" : "17.955545906148",
    "country" : "Puerto Rico",
    "name" : "Ballenas"
  },
  {
    "lng" : "153.59242916107",
    "lat" : "-28.873990427414",
    "country" : "Australia, NSW, North",
    "name" : "Ballina North Wall"
  },
  {
    "lng" : "-10.217113494872",
    "lat" : "51.841584619652",
    "country" : "Ireland, South West",
    "name" : "Ballinskelligs"
  },
  {
    "lng" : "31.221",
    "lat" : "-29.539166666667",
    "country" : "South Africa, East Coast North",
    "name" : "Ballito - Surfers Point"
  },
  {
    "lng" : "-70.021147727966",
    "lat" : "42.000827447744",
    "country" : "USA, North East, Southern New England",
    "name" : "Ballston Beach"
  },
  {
    "lng" : "-9.6770775318146",
    "lat" : "52.513824695392",
    "country" : "Ireland, South West",
    "name" : "Ballybunion"
  },
  {
    "lng" : "-9.8365402221681",
    "lat" : "52.387604576874",
    "country" : "Ireland, South West",
    "name" : "ballyheigue ireland southwest"
  },
  {
    "lng" : "-7.7027893066406",
    "lat" : "55.248989249026",
    "country" : "Ireland, North West",
    "name" : "Ballyheirnan Bay"
  },
  {
    "lng" : "151.25255584717",
    "lat" : "-33.8219770915",
    "country" : "Australia, NSW, Sydney North",
    "name" : "Balmoral point"
  },
  {
    "lng" : "145.12475967407",
    "lat" : "-38.390479808065",
    "country" : "Australia, VIC, Melbourne East",
    "name" : "Balnarring Point"
  },
  {
    "lng" : "-48.629951477051",
    "lat" : "-26.987712366288",
    "country" : "Brazil, Santa Catarina North",
    "name" : "Balneário Camboriú"
  },
  {
    "lng" : "-48.4891764074564",
    "lat" : "-25.7332396357577",
    "country" : "Brazil",
    "name" : "Balneário Costa azul"
  },
  {
    "lng" : "103.5597038269",
    "lat" : "10.494732339895",
    "country" : "Cambodia",
    "name" : "Bamboo Island"
  },
  {
    "lng" : "147.5013256073",
    "lat" : "-42.894210024695",
    "country" : "Australia, TAS, Hobart",
    "name" : "Bambra Reef"
  },
  {
    "lng" : "-1.7166191339493",
    "lat" : "55.612056451916",
    "country" : "UK, Borders and NE England",
    "name" : "Bamburgh"
  },
  {
    "lng" : "-9.6771955490112",
    "lat" : "30.499308873365",
    "country" : "Morocco, South",
    "name" : "Banana Beach"
  },
  {
    "lng" : "30.516242980957",
    "lat" : "-30.664055710273",
    "country" : "South Africa, Hibiscous Coast",
    "name" : "Banana Beach"
  },
  {
    "lng" : "103.84603500366",
    "lat" : "-5.1230883978439",
    "country" : "Indonesia, Sumatra Mainland",
    "name" : "Banana Island"
  },
  {
    "lng" : "-9.6848130226135",
    "lat" : "30.50211911325",
    "country" : "Morocco, South",
    "name" : "Banana Point"
  },
  {
    "lng" : "-61.602138876918",
    "lat" : "15.999661898924",
    "country" : "Guadeloupe",
    "name" : "Bananier"
  },
  {
    "lng" : "-64.587480425835",
    "lat" : "48.372016555788",
    "country" : "Canada, East Coast",
    "name" : "Banc de Pabos"
  },
  {
    "lng" : "144.40788030624",
    "lat" : "-38.292260730524",
    "country" : "Australia, VIC, Melbourne West",
    "name" : "Bancoora"
  },
  {
    "lng" : "59.383850097656",
    "lat" : "21.509296200229",
    "country" : "Oman",
    "name" : "Bandar al Saqlah"
  },
  {
    "lng" : "5.7479524612427",
    "lat" : "43.132841934332",
    "country" : "France, Mediterranean",
    "name" : "bandol"
  },
  {
    "lng" : "-124.43467140198",
    "lat" : "43.092709966461",
    "country" : "USA, North West, Oregon South",
    "name" : "Bandon Beaches"
  },
  {
    "lng" : "121.92910194397",
    "lat" : "-33.834918087481",
    "country" : "Australia, WA, Fitzgerald River",
    "name" : "Bandy Creek Groyne"
  },
  {
    "lng" : "98.240872621536",
    "lat" : "8.6743241504698",
    "country" : "Thailand",
    "name" : "Bang Niang Rivermouth"
  },
  {
    "lng" : "99.244737625122",
    "lat" : "-1.852075297525",
    "country" : "Indonesia, Mentawai",
    "name" : "Bankvaults"
  },
  {
    "lng" : "-9.8353815078735",
    "lat" : "52.346312012931",
    "country" : "Ireland, South West",
    "name" : "Banna Strand - Sandy Lane"
  },
  {
    "lng" : "150.48461794853",
    "lat" : "-35.321191879588",
    "country" : "Australia, NSW, South Coast",
    "name" : "Bannister Head Suck Rock"
  },
  {
    "lng" : "150.48153877258",
    "lat" : "-35.325349881214",
    "country" : "Australia, NSW, South Coast",
    "name" : "Bannisters point"
  },
  {
    "lng" : "-3.8851583003998",
    "lat" : "50.278281223103",
    "country" : "UK, Devon South",
    "name" : "Bantham"
  },
  {
    "lng" : "-3.8869285583496",
    "lat" : "50.278013824164",
    "country" : "UK, Devon South",
    "name" : "Bantham Rivermouth"
  },
  {
    "lng" : "97.294921875",
    "lat" : "2.1967272417617",
    "country" : "Indonesia, Sumatra Islands",
    "name" : "Banyaks"
  },
  {
    "lng" : "-155.97711145878",
    "lat" : "19.606616531692",
    "country" : "USA, Hawaii, Hawaii Island",
    "name" : "Banyons"
  },
  {
    "lng" : "151.46390318871",
    "lat" : "-33.417114227621",
    "country" : "Australia, NSW, Central",
    "name" : "Banzai"
  },
  {
    "lng" : "11.839356422424",
    "lat" : "42.028368114704",
    "country" : "Italy, Mainland",
    "name" : "Banzai ( S. Marinella )"
  },
  {
    "lng" : "9.8722457885742",
    "lat" : "37.317205770306",
    "country" : "Tunisia",
    "name" : "banzart"
  },
  {
    "lng" : "-17.07052230835",
    "lat" : "14.471977736996",
    "country" : "Senegal",
    "name" : "Baobab"
  },
  {
    "lng" : "19.085356518045",
    "lat" : "42.105733099195",
    "country" : "Montenegro",
    "name" : "Bar"
  },
  {
    "lng" : "151.76787257195",
    "lat" : "-32.942033004895",
    "country" : "Australia, NSW, Newcastle",
    "name" : "Bar Beach"
  },
  {
    "lng" : "150.13310909271",
    "lat" : "-36.208416223635",
    "country" : "Australia, NSW, Far South",
    "name" : "Bar Beach"
  },
  {
    "lng" : "151.76977157593",
    "lat" : "-32.942348139652",
    "country" : "Australia, NSW, Newcastle",
    "name" : "Bar Reef"
  },
  {
    "lng" : "55.455958843231",
    "lat" : "-4.6870201891746",
    "country" : "Seychelles, Mahe",
    "name" : "Barbarons"
  },
  {
    "lng" : "-5.9468007087708",
    "lat" : "36.186076727388",
    "country" : "Spain, Andalucia",
    "name" : "Barbate"
  },
  {
    "lng" : "-158.0733704567",
    "lat" : "21.296191936972",
    "country" : "USA, Hawaii, Oahu",
    "name" : "Barber's Point - Coast Guard Jetty"
  },
  {
    "lng" : "2.1926736831665",
    "lat" : "41.378853408792",
    "country" : "Spain, Mediterranean",
    "name" : "Barceloneta"
  },
  {
    "lng" : "-9.7752517461777",
    "lat" : "51.468662724801",
    "country" : "Ireland, South West",
    "name" : "Barley Cove"
  },
  {
    "lng" : "-10.682144165039",
    "lat" : "6.2322001195433",
    "country" : "Liberia",
    "name" : "Barn's Beach"
  },
  {
    "lng" : "35.517082214355",
    "lat" : "-23.789428846486",
    "country" : "Mozambique",
    "name" : "Barra"
  },
  {
    "lng" : "13.152008056641",
    "lat" : "-9.3599815678694",
    "country" : "Angola",
    "name" : "Barra da Kwanza"
  },
  {
    "lng" : "-48.424376249313",
    "lat" : "-27.572817695647",
    "country" : "Brazil, Florianopolis",
    "name" : "Barra da Lagoa"
  },
  {
    "lng" : "-43.361874371767",
    "lat" : "-23.010857349428",
    "country" : "Brazil, Rio de Janeiro City",
    "name" : "Barra da Tijuca - Posto 8"
  },
  {
    "lng" : "-100.01090526581",
    "lat" : "16.91699213162",
    "country" : "Mexico, Guerrero",
    "name" : "Barra de coyuca"
  },
  {
    "lng" : "-43.569374084473",
    "lat" : "-23.064017641347",
    "country" : "Brazil, Rio de Janeiro City",
    "name" : "Barra de Guaratiba"
  },
  {
    "lng" : "-48.68416428566",
    "lat" : "-26.691345062169",
    "country" : "Brazil, Santa Catarina North",
    "name" : "barra de Itajuba"
  },
  {
    "lng" : "-104.69266891479",
    "lat" : "19.204672708048",
    "country" : "Mexico, Jalisco",
    "name" : "Barra de Navidad"
  },
  {
    "lng" : "-90.039358735085",
    "lat" : "13.705954645363",
    "country" : "El Salvador",
    "name" : "Barra de Santiago"
  },
  {
    "lng" : "-48.604061454538",
    "lat" : "-26.007831547686",
    "country" : "Brazil, Santa Catarina North",
    "name" : "Barra do sai mirim"
  },
  {
    "lng" : "-40.310087800026",
    "lat" : "-20.384261530706",
    "country" : "Brazil, Espirito Santo",
    "name" : "Barra Sol"
  },
  {
    "lng" : "-99.629817008972",
    "lat" : "16.688241447678",
    "country" : "Mexico, Guerrero",
    "name" : "Barra Vieja"
  },
  {
    "lng" : "150.87472915649",
    "lat" : "-34.560603138496",
    "country" : "Australia, NSW, South Coast",
    "name" : "Barrack Point"
  },
  {
    "lng" : "-8.5486507415771",
    "lat" : "43.311876639639",
    "country" : "Spain, Galicia",
    "name" : "Barrañán"
  },
  {
    "lng" : "-8.1829690933228",
    "lat" : "37.091283902323",
    "country" : "Portugal, South",
    "name" : "Barranco da Belharucas"
  },
  {
    "lng" : "-70.144035816193",
    "lat" : "-21.826175861614",
    "country" : "Chile, Tarapaca",
    "name" : "Barrancon"
  },
  {
    "lng" : "-77.026476860046",
    "lat" : "-12.145209224682",
    "country" : "Peru, Lima",
    "name" : "Barranquito"
  },
  {
    "lng" : "-38.526971340179",
    "lat" : "-13.009763615716",
    "country" : "Brazil, Bahia North Coast",
    "name" : "Barravento"
  },
  {
    "lng" : "-3.2092094421387",
    "lat" : "47.638212656571",
    "country" : "France, Brittany South",
    "name" : "Barre d'étel"
  },
  {
    "lng" : "-85.577702522278",
    "lat" : "9.8817286892368",
    "country" : "Costa Rica, Guanacaste",
    "name" : "Barrigona"
  },
  {
    "lng" : "-48.679990768433",
    "lat" : "-26.623905071921",
    "country" : "Brazil, Santa Catarina North",
    "name" : "Barrinha"
  },
  {
    "lng" : "-48.630895614624",
    "lat" : "-28.085384262612",
    "country" : "Brazil, Santa Catarina",
    "name" : "Barrinha"
  },
  {
    "lng" : "-48.590726852417",
    "lat" : "-25.976699439059",
    "country" : "Brazil, Parana",
    "name" : "Barrinha"
  },
  {
    "lng" : "-40.183460712433",
    "lat" : "-20.15110123139",
    "country" : "Brazil, Espirito Santo",
    "name" : "Barrote-Jacaraipe"
  },
  {
    "lng" : "-9.3667030334475",
    "lat" : "52.916821081189",
    "country" : "Ireland, West",
    "name" : "Barrtrá"
  },
  {
    "lng" : "152.84259483217",
    "lat" : "-31.59415976418",
    "country" : "Australia, NSW, Mid North Coast",
    "name" : "Bartletts Beach"
  },
  {
    "lng" : "138.7003326416",
    "lat" : "-35.521678478851",
    "country" : "Australia, SA, York Peninsula",
    "name" : "Bashams bommie"
  },
  {
    "lng" : "121.48119449615",
    "lat" : "23.396837340277",
    "country" : "Taiwan",
    "name" : "BashienDong"
  },
  {
    "lng" : "-10.178596973419",
    "lat" : "51.807586646058",
    "country" : "Ireland, South West",
    "name" : "Baslicon"
  },
  {
    "lng" : "9.4004666805267",
    "lat" : "41.242618415531",
    "country" : "Italy, Sicily Sardinia",
    "name" : "Bassa Trinita"
  },
  {
    "lng" : "-61.116598024966",
    "lat" : "14.869976488771",
    "country" : "Martinique",
    "name" : "BASSE POINTE LE CHAUDRON"
  },
  {
    "lng" : "-8.3635568618774",
    "lat" : "43.343313607147",
    "country" : "Spain, Galicia",
    "name" : "Bastiagueiro"
  },
  {
    "lng" : "-81.299257278442",
    "lat" : "-4.4573197104221",
    "country" : "Peru, North",
    "name" : "Baterias"
  },
  {
    "lng" : "-75.756869316101",
    "lat" : "45.409749083829",
    "country" : "Canada",
    "name" : "Bates Island, Ottawa River"
  },
  {
    "lng" : "35.658659934998",
    "lat" : "34.243630205773",
    "country" : "Lebanon",
    "name" : "Batroun"
  },
  {
    "lng" : "18.317127227783",
    "lat" : "-34.146263123313",
    "country" : "South Africa, Cape Town",
    "name" : "Battery"
  },
  {
    "lng" : "-59.6363478899",
    "lat" : "13.135042535265",
    "country" : "Barbados",
    "name" : "Batts Rock"
  },
  {
    "lng" : "108.50217819214",
    "lat" : "-7.7482439113728",
    "country" : "Indonesia, West Java",
    "name" : "Batu Karas"
  },
  {
    "lng" : "-1.82373046875",
    "lat" : "49.429314498848",
    "country" : "France, Normandy",
    "name" : "Baubigny"
  },
  {
    "lng" : "-70.133038759232",
    "lat" : "-20.275728806088",
    "country" : "Chile, Tarapaca",
    "name" : "Baul"
  },
  {
    "lng" : "97.347192764282",
    "lat" : "0.81253189160424",
    "country" : "Indonesia, Sumatra Islands",
    "name" : "Bawa"
  },
  {
    "lng" : "150.40111541748",
    "lat" : "-35.507076989475",
    "country" : "Australia, NSW, South Coast",
    "name" : "Bawley Point"
  },
  {
    "lng" : "115.64576983452",
    "lat" : "-33.304116007482",
    "country" : "Australia, WA, Perth South",
    "name" : "Bay (left wall)"
  },
  {
    "lng" : "-8.605899810791",
    "lat" : "54.279207429605",
    "country" : "Ireland, West",
    "name" : "Bay Break"
  },
  {
    "lng" : "-74.039504528046",
    "lat" : "40.076987783227",
    "country" : "USA, North East, New Jersey",
    "name" : "Bay Head"
  },
  {
    "lng" : "3.2314083809618",
    "lat" : "51.344495843013",
    "country" : "Belgium",
    "name" : "Bay of Heist"
  },
  {
    "lng" : "97.318611145018",
    "lat" : "2.0558903251664",
    "country" : "Indonesia, Sumatra Islands",
    "name" : "Bay of Plenty"
  },
  {
    "lng" : "-82.719883918762",
    "lat" : "41.516839304974",
    "country" : "USA, Inland",
    "name" : "Bay Point, Marblehead"
  },
  {
    "lng" : "-118.49297761917",
    "lat" : "34.00443128757",
    "country" : "USA, California, LA County",
    "name" : "Bay Street, Santa Monica"
  },
  {
    "lng" : "151.14784240723",
    "lat" : "-34.065316541103",
    "country" : "Australia, NSW, Sydney South",
    "name" : "Bay Waves"
  },
  {
    "lng" : "-155.07733225822",
    "lat" : "19.724897879011",
    "country" : "USA, Hawaii, Hawaii Island",
    "name" : "Bayfront"
  },
  {
    "lng" : "-80.855662822723",
    "lat" : "28.976768527113",
    "country" : "USA, South East, North Florida",
    "name" : "Beach Club"
  },
  {
    "lng" : "177.77119159698",
    "lat" : "-18.23163396773",
    "country" : "Fiji",
    "name" : "Beachouse"
  },
  {
    "lng" : "140.01670181751",
    "lat" : "-37.480371100076",
    "country" : "Australia, SA, East",
    "name" : "Beachport"
  },
  {
    "lng" : "-81.288356781006",
    "lat" : "29.916703445445",
    "country" : "USA, South East, North Florida",
    "name" : "Beacon point"
  },
  {
    "lng" : "-117.3047375679",
    "lat" : "33.065102068104",
    "country" : "USA, California, San Diego County",
    "name" : "Beacons"
  },
  {
    "lng" : "73.141361474991",
    "lat" : "0.2117240855982",
    "country" : "Maldives",
    "name" : "Beacons"
  },
  {
    "lng" : "150.07650375366",
    "lat" : "-36.435612246612",
    "country" : "Australia, NSW, Far South",
    "name" : "Bears Beach"
  },
  {
    "lng" : "55.428514480591",
    "lat" : "-4.6105613797751",
    "country" : "Seychelles, Mahe",
    "name" : "Beau Vallon Beach"
  },
  {
    "lng" : "-77.894096374512",
    "lat" : "34.026521467847",
    "country" : "USA, South East, North Carolina",
    "name" : "Beauregard"
  },
  {
    "lng" : "-1.8760335445404",
    "lat" : "49.545757326491",
    "country" : "France, Normandy",
    "name" : "Becquerel Point"
  },
  {
    "lng" : "73.536772727966",
    "lat" : "2.0185621346708",
    "country" : "Maldives",
    "name" : "Bedhuge"
  },
  {
    "lng" : "-118.39845657349",
    "lat" : "33.736617340262",
    "country" : "USA, California, LA County",
    "name" : "Bee Hives"
  },
  {
    "lng" : "-3.0953979492188",
    "lat" : "50.685474088802",
    "country" : "UK, Devon South",
    "name" : "Beer Point"
  },
  {
    "lng" : "148.35208710283",
    "lat" : "-41.283907805944",
    "country" : "Australia, TAS, East Coast",
    "name" : "beerbarral beach"
  },
  {
    "lng" : "-3.6388778686523",
    "lat" : "47.774521597441",
    "country" : "France, Brittany South",
    "name" : "Beg An Tour"
  },
  {
    "lng" : "-3.5526609420776",
    "lat" : "48.743653591918",
    "country" : "France, Brittany North",
    "name" : "Beg Léguer"
  },
  {
    "lng" : "-84.436122179031",
    "lat" : "9.5181001183314",
    "country" : "Costa Rica, Pacific South",
    "name" : "Bejuco"
  },
  {
    "lng" : "150.92262268066",
    "lat" : "-34.364215503897",
    "country" : "Australia, NSW, Coal Coast",
    "name" : "Belambi  A Frame"
  },
  {
    "lng" : "-9.252644777298",
    "lat" : "39.416518715712",
    "country" : "Portugal, Central Peniche",
    "name" : "Belgas"
  },
  {
    "lng" : "-62.233064174652",
    "lat" : "16.741427547004",
    "country" : "Montserrat",
    "name" : "Belham Valley Rivermouth"
  },
  {
    "lng" : "-1.7059707641602",
    "lat" : "43.414525042085",
    "country" : "France, Basque Country",
    "name" : "Belharra"
  },
  {
    "lng" : "-8.9655303955078",
    "lat" : "37.025717397158",
    "country" : "Portugal, Algarve",
    "name" : "Beliche"
  },
  {
    "lng" : "-82.842535972595",
    "lat" : "27.924350620898",
    "country" : "USA, Gulf Coast, Florida",
    "name" : "Bellair Beach"
  },
  {
    "lng" : "150.92342734337",
    "lat" : "-34.363197024191",
    "country" : "Australia, NSW, Coal Coast",
    "name" : "bellambi point"
  },
  {
    "lng" : "-3.2388210296631",
    "lat" : "47.326199564091",
    "country" : "France, Brittany South",
    "name" : "Belle Ile en Mer - Donnant"
  },
  {
    "lng" : "6.6149282455444",
    "lat" : "46.509971429496",
    "country" : "Switzerland",
    "name" : "Bellerive"
  },
  {
    "lng" : "-122.51650571823",
    "lat" : "48.719409116804",
    "country" : "USA, North West, Washington",
    "name" : "Bellingham Bay"
  },
  {
    "lng" : "18.592987060547",
    "lat" : "-34.155994235996",
    "country" : "South Africa, Cape Town",
    "name" : "Bellows"
  },
  {
    "lng" : "-157.70934104919",
    "lat" : "21.36253186469",
    "country" : "USA, Hawaii, Oahu",
    "name" : "Bellows"
  },
  {
    "lng" : "144.28104400635",
    "lat" : "-38.371808917148",
    "country" : "Australia, VIC, Melbourne West",
    "name" : "Bells Beach"
  },
  {
    "lng" : "-74.015439748764",
    "lat" : "40.172089796197",
    "country" : "USA, North East, New Jersey",
    "name" : "Belmar - 16 th Street"
  },
  {
    "lng" : "116.03626728058",
    "lat" : "-8.8819764236685",
    "country" : "Indonesia, Lombok",
    "name" : "Belongas"
  },
  {
    "lng" : "153.59650611877",
    "lat" : "-28.630298403043",
    "country" : "Australia, NSW, North",
    "name" : "Belongil"
  },
  {
    "lng" : "12.65524148941",
    "lat" : "41.455625306329",
    "country" : "Italy, Mainland",
    "name" : "Belvedere"
  },
  {
    "lng" : "-118.47914814949",
    "lat" : "33.376242122927",
    "country" : "USA, California, Orange County",
    "name" : "Ben weston (Catalina Island)"
  },
  {
    "lng" : "73.918762207031",
    "lat" : "15.256943831489",
    "country" : "India, North-West",
    "name" : "Benaulim Beach"
  },
  {
    "lng" : "150.53589105606",
    "lat" : "-35.251209112875",
    "country" : "Australia, NSW, South Coast",
    "name" : "Bendalong"
  },
  {
    "lng" : "114.34844970703",
    "lat" : "-28.306798859194",
    "country" : "Australia, WA, Kalbarri",
    "name" : "benders"
  },
  {
    "lng" : "116.73576593399",
    "lat" : "-8.8907744683448",
    "country" : "Indonesia, Sumbawa",
    "name" : "Benete"
  },
  {
    "lng" : "99.265336990357",
    "lat" : "-1.814500699337",
    "country" : "Indonesia, Mentawai",
    "name" : "Beng Beng"
  },
  {
    "lng" : "-16.188687086105",
    "lat" : "28.574584320957",
    "country" : "Canary, Tenerife",
    "name" : "Benijo"
  },
  {
    "lng" : "115.75182706118",
    "lat" : "-31.872715180062",
    "country" : "Australia, WA, Perth City",
    "name" : "Bennion Beach - cleggies"
  },
  {
    "lng" : "80.098208069703",
    "lat" : "6.1387498757936",
    "country" : "Sri Lanka",
    "name" : "Bennys"
  },
  {
    "lng" : "114.91991579533",
    "lat" : "4.9937858037205",
    "country" : "Brunei",
    "name" : "Berakas Coastal Park"
  },
  {
    "lng" : "115.13861111111",
    "lat" : "-8.6669444444444",
    "country" : "Indonesia, Bali",
    "name" : "Berawa"
  },
  {
    "lng" : "1.5578699111938",
    "lat" : "50.408599581688",
    "country" : "France, Normandy",
    "name" : "Berck sur mer"
  },
  {
    "lng" : "4.627947807312",
    "lat" : "52.660884261488",
    "country" : "Netherlands",
    "name" : "Bergen aan zee"
  },
  {
    "lng" : "-77.907829284668",
    "lat" : "-10.564012761956",
    "country" : "Peru, Central",
    "name" : "Bermejo"
  },
  {
    "lng" : "57.695174217224",
    "lat" : "-20.006076472656",
    "country" : "Mauritius",
    "name" : "bernache"
  },
  {
    "lng" : "1.1952137947083",
    "lat" : "49.96917909552",
    "country" : "France, Normandy",
    "name" : "Berneval"
  },
  {
    "lng" : "150.55097579956",
    "lat" : "-35.211615071406",
    "country" : "Australia, NSW, South Coast",
    "name" : "Berrara Point"
  },
  {
    "lng" : "-3.4639120101929",
    "lat" : "43.464475906278",
    "country" : "Spain, Cantabria",
    "name" : "Berria"
  },
  {
    "lng" : "137.01101303101",
    "lat" : "-34.899025460931",
    "country" : "Australia, SA, York Peninsula",
    "name" : "Berry Bay"
  },
  {
    "lng" : "145.20105242729",
    "lat" : "-38.518229007242",
    "country" : "Australia, VIC, Melbourne East, Phillip Island",
    "name" : "Berry's Beach"
  },
  {
    "lng" : "-79.836208820343",
    "lat" : "32.75773948201",
    "country" : "USA, South East, South Carolina",
    "name" : "Berts Bar"
  },
  {
    "lng" : "34.861797094345",
    "lat" : "32.385180257193",
    "country" : "Israel",
    "name" : "Bet Yanay"
  },
  {
    "lng" : "73.902282714844",
    "lat" : "15.292961187179",
    "country" : "India, North-West",
    "name" : "Betalbatim Beach - Taj"
  },
  {
    "lng" : "-75.053325891495",
    "lat" : "38.537491460725",
    "country" : "USA, North East, Virginia",
    "name" : "Bethany Hollywood St"
  },
  {
    "lng" : "174.44538116455",
    "lat" : "-36.900626393129",
    "country" : "New Zealand, New Zealand NI, West Coast Auckland",
    "name" : "Bethells"
  },
  {
    "lng" : "-80.838697850704",
    "lat" : "28.95080895342",
    "country" : "USA, South East, North Florida",
    "name" : "Bethune"
  },
  {
    "lng" : "18.907830119133",
    "lat" : "-34.360430829931",
    "country" : "South Africa, Cape Town",
    "name" : "Betty's Bay"
  },
  {
    "lng" : "0.46620547771453",
    "lat" : "50.836052288158",
    "country" : "UK, South East",
    "name" : "Bexhill"
  },
  {
    "lng" : "-2.59645644575357",
    "lat" : "4.98736488964126",
    "country" : "Ghana",
    "name" : "Beyin Beach Resort"
  },
  {
    "lng" : "-1.5671825408936",
    "lat" : "43.479051412991",
    "country" : "France, Basque Country",
    "name" : "Biarritz - Cote des Basques"
  },
  {
    "lng" : "-1.5592002868652",
    "lat" : "43.485466013306",
    "country" : "France, Basque Country",
    "name" : "Biarritz - Grande Plage"
  },
  {
    "lng" : "-1.5771818161011",
    "lat" : "43.46484968113",
    "country" : "France, Basque Country",
    "name" : "Biarritz - Milady"
  },
  {
    "lng" : "-1.5745532512665",
    "lat" : "43.469116780217",
    "country" : "France, Basque Country",
    "name" : "Biarritz - Plage de Marbella"
  },
  {
    "lng" : "-32.403348684311",
    "lat" : "-3.8351059144957",
    "country" : "Brazil, Fernando do Noronha",
    "name" : "Biboca"
  },
  {
    "lng" : "-9.3718045949934",
    "lat" : "38.692485884645",
    "country" : "Portugal, Central Lisboa",
    "name" : "Bica"
  },
  {
    "lng" : "-9.2189240455627",
    "lat" : "38.422848079455",
    "country" : "Portugal, Central Lisboa",
    "name" : "Bicas"
  },
  {
    "lng" : "-81.06213927269",
    "lat" : "29.339161748947",
    "country" : "USA, South East, North Florida",
    "name" : "Bicentenial Park"
  },
  {
    "lng" : "-1.5837854146957",
    "lat" : "43.455738260737",
    "country" : "France, Basque Country",
    "name" : "Bidart - Pavillon Royal"
  },
  {
    "lng" : "-1.5967512130737",
    "lat" : "43.437090613776",
    "country" : "France, Basque Country",
    "name" : "Bidart - Plage centrale"
  },
  {
    "lng" : "-1.5820580720901",
    "lat" : "43.456065361127",
    "country" : "France, Basque Country",
    "name" : "BidartII"
  },
  {
    "lng" : "18.451066017151",
    "lat" : "-33.792273132273",
    "country" : "South Africa, Cape Town",
    "name" : "Big Bay"
  },
  {
    "lng" : "-156.44841313362",
    "lat" : "20.632352501064",
    "country" : "USA, Hawaii, Maui",
    "name" : "Big Beach"
  },
  {
    "lng" : "151.57531142235",
    "lat" : "-33.27828775157",
    "country" : "Australia, NSW, Central",
    "name" : "Big bommie"
  },
  {
    "lng" : "-156.47678017616",
    "lat" : "20.900182057747",
    "country" : "USA, Hawaii, Maui",
    "name" : "Big Eds"
  },
  {
    "lng" : "11.284589767457",
    "lat" : "58.300719541601",
    "country" : "Sweden",
    "name" : "Big Farmers break"
  },
  {
    "lng" : "-124.13572311401",
    "lat" : "41.160046141687",
    "country" : "USA, California, Humboldt",
    "name" : "Big Lagoon"
  },
  {
    "lng" : "145.01008987427",
    "lat" : "-38.485105682697",
    "country" : "Australia, VIC, Melbourne East",
    "name" : "Big Left"
  },
  {
    "lng" : "177.94710159302",
    "lat" : "-38.711500435879",
    "country" : "New Zealand, New Zealand NI, East Cape",
    "name" : "Big River"
  },
  {
    "lng" : "-123.79780769348",
    "lat" : "39.301594343773",
    "country" : "USA, California, Mendocino",
    "name" : "Big River"
  },
  {
    "lng" : "115.72488963604",
    "lat" : "-31.753181163057",
    "country" : "Australia, WA, Perth City",
    "name" : "Big Rock"
  },
  {
    "lng" : "-117.28152036667",
    "lat" : "32.825058586961",
    "country" : "USA, California, San Diego County",
    "name" : "Big Rock"
  },
  {
    "lng" : "-111.9130039215",
    "lat" : "33.445837696604",
    "country" : "USA, USA Others",
    "name" : "Big Surf AZ"
  },
  {
    "lng" : "-54.826819896698",
    "lat" : "-34.908792191314",
    "country" : "Uruguay",
    "name" : "Bikini Beach (Left Reef Break)"
  },
  {
    "lng" : "151.33076369762",
    "lat" : "-33.643887945393",
    "country" : "Australia, NSW, Sydney North",
    "name" : "Bilgola Bank"
  },
  {
    "lng" : "151.32924556732",
    "lat" : "-33.647671564231",
    "country" : "Australia, NSW, Sydney North",
    "name" : "Bilgola Beach - Bowles"
  },
  {
    "lng" : "-123.26887607574",
    "lat" : "38.525070076784",
    "country" : "USA, California, Sonoma",
    "name" : "Bill's Bowls"
  },
  {
    "lng" : "-16.118810176849",
    "lat" : "23.224014261672",
    "country" : "Western Sahara",
    "name" : "Bing's Point"
  },
  {
    "lng" : "146.10018253326",
    "lat" : "-17.830372494791",
    "country" : "Australia, QLD, Far North West",
    "name" : "Bingil Bay"
  },
  {
    "lng" : "115.11333525181",
    "lat" : "-8.8040621394064",
    "country" : "Indonesia, Bali",
    "name" : "Bingin"
  },
  {
    "lng" : "104.42813873291",
    "lat" : "1.1919306203815",
    "country" : "Indonesia, Others",
    "name" : "Bintan Lagoon Resort"
  },
  {
    "lng" : "-57.528630495071",
    "lat" : "-38.027248911884",
    "country" : "Argentina, North",
    "name" : "Biología"
  },
  {
    "lng" : "-78.529071807861",
    "lat" : "33.857301740642",
    "country" : "USA, South East, Southern North Carolina",
    "name" : "Bird Island"
  },
  {
    "lng" : "145.81357240677",
    "lat" : "15.258206613452",
    "country" : "Mariana Islands",
    "name" : "Bird Island (Saipan)"
  },
  {
    "lng" : "144.29698705673",
    "lat" : "-38.356094722552",
    "country" : "Australia, VIC, Melbourne West",
    "name" : "Bird Rock"
  },
  {
    "lng" : "-117.25659191608",
    "lat" : "32.729467235364",
    "country" : "USA, California, San Diego County",
    "name" : "Bird Shit"
  },
  {
    "lng" : "99.297057868073",
    "lat" : "-1.6895360440578",
    "country" : "Indonesia, Mentawai",
    "name" : "Birdbaths"
  },
  {
    "lng" : "-117.68623352051",
    "lat" : "33.420552949163",
    "country" : "USA, California, LA County, San-Clemente-Island",
    "name" : "Birdhits"
  },
  {
    "lng" : "151.60762667656",
    "lat" : "-33.205501574659",
    "country" : "Australia, NSW, Central",
    "name" : "Birdie beach"
  },
  {
    "lng" : "-117.27499723434",
    "lat" : "32.814275085236",
    "country" : "USA, California, San Diego County",
    "name" : "Birdrock"
  },
  {
    "lng" : "0.2003288269043",
    "lat" : "50.742538721332",
    "country" : "UK, South East",
    "name" : "Birling gap"
  },
  {
    "lng" : "-1.2569046020508",
    "lat" : "44.447292346198",
    "country" : "France, Landes",
    "name" : "Biscarrosse"
  },
  {
    "lng" : "19.395503997803",
    "lat" : "41.388400525983",
    "country" : "Albania",
    "name" : "Bishtpala Out"
  },
  {
    "lng" : "-1.8432784080505",
    "lat" : "49.609263891307",
    "country" : "France, Normandy",
    "name" : "Biville"
  },
  {
    "lng" : "18.466612100601",
    "lat" : "-33.808356628035",
    "country" : "South Africa, Cape Town",
    "name" : "Blaauwberg"
  },
  {
    "lng" : "-82.787475585938",
    "lat" : "9.671153534953",
    "country" : "Costa Rica, Caribbean",
    "name" : "Black Beach"
  },
  {
    "lng" : "153.59961211681",
    "lat" : "-28.859041798855",
    "country" : "Australia, NSW, North",
    "name" : "Black Head"
  },
  {
    "lng" : "152.54621744156",
    "lat" : "-32.07003808561",
    "country" : "Australia, NSW, Mid North Coast",
    "name" : "Black Head point"
  },
  {
    "lng" : "-1.9381351856442",
    "lat" : "4.8003571422258",
    "country" : "Ghana",
    "name" : "Black Mamba"
  },
  {
    "lng" : "115.55480003357",
    "lat" : "-34.417973645259",
    "country" : "Australia, WA, Walpole",
    "name" : "Black Point"
  },
  {
    "lng" : "153.02059829235",
    "lat" : "-30.648356504188",
    "country" : "Australia, NSW, Banana Coast",
    "name" : "Black rock"
  },
  {
    "lng" : "30.766546726227",
    "lat" : "-30.268593313835",
    "country" : "South Africa, Hibiscous Coast",
    "name" : "Black Rock"
  },
  {
    "lng" : "57.367515563965",
    "lat" : "-20.318389399603",
    "country" : "Mauritius",
    "name" : "Black rocks"
  },
  {
    "lng" : "18.461751937866",
    "lat" : "-34.309873406256",
    "country" : "South Africa, Cape Town",
    "name" : "Black Rocks"
  },
  {
    "lng" : "55.221297740936",
    "lat" : "-21.055752010004",
    "country" : "Reunion",
    "name" : "Black Rocks Jetty"
  },
  {
    "lng" : "55.222510099411",
    "lat" : "-21.053484164799",
    "country" : "Reunion",
    "name" : "Black Rocks right"
  },
  {
    "lng" : "140.73745",
    "lat" : "-2.6170694444444",
    "country" : "Indonesia, Others",
    "name" : "Black Sands"
  },
  {
    "lng" : "-8.3219568733328",
    "lat" : "54.476379817376",
    "country" : "Ireland, North West",
    "name" : "Black spot"
  },
  {
    "lng" : "134.8305273056",
    "lat" : "-33.619979981751",
    "country" : "Australia, SA, Eyre Peninsula",
    "name" : "Blackfellows"
  },
  {
    "lng" : "150.13424634933",
    "lat" : "-36.082800472628",
    "country" : "Australia, NSW, Far South",
    "name" : "Blackfellows Point"
  },
  {
    "lng" : "170.42455673217",
    "lat" : "-45.930498074291",
    "country" : "New Zealand, New Zealand SI, Far South",
    "name" : "Blackhead"
  },
  {
    "lng" : "-117.9320526123",
    "lat" : "33.609043821629",
    "country" : "USA, California, Orange County",
    "name" : "Blackies"
  },
  {
    "lng" : "147.32580184936",
    "lat" : "-43.00168441719",
    "country" : "Australia, TAS, East Coast",
    "name" : "Blackmans Bay"
  },
  {
    "lng" : "141.63977622986",
    "lat" : "-38.37490424488",
    "country" : "Australia, VIC, Western Victoria",
    "name" : "Blacknose"
  },
  {
    "lng" : "150.68452835083",
    "lat" : "-35.168476080532",
    "country" : "Australia, NSW, South Coast",
    "name" : "Blackrock"
  },
  {
    "lng" : "153.57275247574",
    "lat" : "-28.37693980518",
    "country" : "Australia, NSW, North",
    "name" : "Blackrocks"
  },
  {
    "lng" : "177.79998779297",
    "lat" : "-39.076775952213",
    "country" : "New Zealand, New Zealand NI, SW Coast",
    "name" : "Blacks"
  },
  {
    "lng" : "150.35038948059",
    "lat" : "-35.587457007818",
    "country" : "Australia, NSW, South Coast",
    "name" : "Blacks"
  },
  {
    "lng" : "-121.9931101799",
    "lat" : "36.958834019965",
    "country" : "USA, California, Santa Cruz",
    "name" : "Blacks"
  },
  {
    "lng" : "-117.2538292408",
    "lat" : "32.879587173066",
    "country" : "USA, California, San Diego County",
    "name" : "Blacks Beach"
  },
  {
    "lng" : "151.65889978409",
    "lat" : "-33.078579015314",
    "country" : "Australia, NSW, Newcastle",
    "name" : "Blacksmiths beach"
  },
  {
    "lng" : "-63.009338378906",
    "lat" : "18.089728080676",
    "country" : "St Martin",
    "name" : "Blake's break"
  },
  {
    "lng" : "171.1930847168",
    "lat" : "-42.442841200073",
    "country" : "New Zealand, New Zealand SI, West Coast",
    "name" : "Blaketown wedge"
  },
  {
    "lng" : "3.1105041503908",
    "lat" : "51.31527111771",
    "country" : "Belgium",
    "name" : "Blankenberge Oosterstaketsel"
  },
  {
    "lng" : "3.1365966796875",
    "lat" : "51.321373075427",
    "country" : "Belgium",
    "name" : "Blankenberge Pier"
  },
  {
    "lng" : "150.6914806366",
    "lat" : "-35.083753650035",
    "country" : "Australia, NSW, South Coast",
    "name" : "Blenheim Beach"
  },
  {
    "lng" : "18.799452781677",
    "lat" : "-34.101926211707",
    "country" : "South Africa, Cape Town",
    "name" : "Blinkklip Reef"
  },
  {
    "lng" : "-71.586227416992",
    "lat" : "41.145569731009",
    "country" : "USA, North East, Southern New England",
    "name" : "Block Island"
  },
  {
    "lng" : "-8.2989985288441",
    "lat" : "55.138007708283",
    "country" : "Ireland, North West",
    "name" : "Bloody foreland"
  },
  {
    "lng" : "176.18420362473",
    "lat" : "-37.630139316268",
    "country" : "New Zealand, New Zealand NI, Coromandel",
    "name" : "Blowhole"
  },
  {
    "lng" : "-81.267285346985",
    "lat" : "29.874959741402",
    "country" : "USA, South East, North Florida",
    "name" : "Blowhole"
  },
  {
    "lng" : "150.38732886314",
    "lat" : "-35.56157450052",
    "country" : "Australia, NSW, South Coast",
    "name" : "Blowies"
  },
  {
    "lng" : "151.50266647339",
    "lat" : "-33.355767498334",
    "country" : "Australia, NSW, Central",
    "name" : "Blue Bay"
  },
  {
    "lng" : "151.50199055672",
    "lat" : "-33.355113306182",
    "country" : "Australia, NSW, Central",
    "name" : "Blue bay shorey"
  },
  {
    "lng" : "73.286812305451",
    "lat" : "0.23311894002049",
    "country" : "Maldives",
    "name" : "Blue bowls"
  },
  {
    "lng" : "-61.2025",
    "lat" : "13.126388888889",
    "country" : "St Vincent Grenadines",
    "name" : "Blue Lagoon"
  },
  {
    "lng" : "151.48882627487",
    "lat" : "-33.381389142488",
    "country" : "Australia, NSW, Central",
    "name" : "Blue Lagoon Point"
  },
  {
    "lng" : "143.96655499935",
    "lat" : "-38.566987846675",
    "country" : "Australia, VIC, Melbourne West",
    "name" : "Blue Moons"
  },
  {
    "lng" : "170.26851654053",
    "lat" : "-45.987659136696",
    "country" : "New Zealand, New Zealand SI, Far South",
    "name" : "Blue Tops"
  },
  {
    "lng" : "152.53714084625",
    "lat" : "-32.351742146013",
    "country" : "Australia, NSW, Mid North Coast",
    "name" : "Blueys Beach"
  },
  {
    "lng" : "152.53526732326",
    "lat" : "-32.357286568923",
    "country" : "Australia, NSW, Mid North Coast",
    "name" : "Blueys beach wedge"
  },
  {
    "lng" : "-82.256162166595",
    "lat" : "9.4238515635731",
    "country" : "Panama",
    "name" : "BLUFF"
  },
  {
    "lng" : "-79.228978157043",
    "lat" : "43.704211961169",
    "country" : "Canada, Great Lakes",
    "name" : "Bluffers"
  },
  {
    "lng" : "-1.4973163604736",
    "lat" : "55.110291746449",
    "country" : "UK, Borders and NE England",
    "name" : "Blyth Beach"
  },
  {
    "lng" : "9.0734195709229",
    "lat" : "59.446558596711",
    "country" : "Norway",
    "name" : "Bo Sommerland -  flow rider"
  },
  {
    "lng" : "122.8400160674",
    "lat" : "-10.940330653012",
    "country" : "Indonesia, Savu Sea",
    "name" : "Boa"
  },
  {
    "lng" : "76.70654296875",
    "lat" : "8.7167886302587",
    "country" : "India, Kerala",
    "name" : "Boar rice"
  },
  {
    "lng" : "35.650176778437",
    "lat" : "34.107051398876",
    "country" : "Lebanon",
    "name" : "Board n Surf"
  },
  {
    "lng" : "-80.565233230591",
    "lat" : "28.092123475209",
    "country" : "USA, South East, North Florida",
    "name" : "Boardwalk"
  },
  {
    "lng" : "144.75164830685",
    "lat" : "13.482946579499",
    "country" : "Micronesia, Guam",
    "name" : "Boat Basin Lefts"
  },
  {
    "lng" : "144.75288748741",
    "lat" : "13.482659667909",
    "country" : "Micronesia, Guam",
    "name" : "Boat Basin Rights"
  },
  {
    "lng" : "-120.60662269592",
    "lat" : "34.555531417124",
    "country" : "USA, California, Santa Barbara",
    "name" : "Boat House"
  },
  {
    "lng" : "-97.218232154846",
    "lat" : "27.582299045077",
    "country" : "USA, Gulf Coast, Texas",
    "name" : "Bob Hall Pier"
  },
  {
    "lng" : "-1.2499523162842",
    "lat" : "44.495893103416",
    "country" : "France, Gironde",
    "name" : "Bobby's"
  },
  {
    "lng" : "-159.57778930664",
    "lat" : "22.225230108389",
    "country" : "USA, Hawaii, Kauai",
    "name" : "Bobo's Haena"
  },
  {
    "lng" : "126.34706497192",
    "lat" : "6.8527194054141",
    "country" : "Philippines, Mindanao",
    "name" : "Bobon"
  },
  {
    "lng" : "-84.740295410156",
    "lat" : "9.9592134969043",
    "country" : "Costa Rica, Pacific South",
    "name" : "Boca Barranca"
  },
  {
    "lng" : "-38.986701965332",
    "lat" : "-14.265880402688",
    "country" : "Brazil, Bahia Sul",
    "name" : "Boca da Barra"
  },
  {
    "lng" : "-104.4140625",
    "lat" : "19.163329889305",
    "country" : "Mexico, Michoacan",
    "name" : "Boca de Apisa"
  },
  {
    "lng" : "-13.660126",
    "lat" : "29.120824",
    "country" : "Canary, Lanzarote",
    "name" : "Boca del Abajo"
  },
  {
    "lng" : "-8.8101124763489",
    "lat" : "37.065425376842",
    "country" : "Portugal, Algarve",
    "name" : "Boca do rio"
  },
  {
    "lng" : "-80.070472955704",
    "lat" : "26.335234819389",
    "country" : "USA, South East, South Florida",
    "name" : "Boca Inlet"
  },
  {
    "lng" : "-15.665412247181",
    "lat" : "28.158778168103",
    "country" : "Canary, Gran Canaria",
    "name" : "Bocabarranco"
  },
  {
    "lng" : "10.233335494995",
    "lat" : "43.862272995563",
    "country" : "Italy, Mainland",
    "name" : "Bocchetta ( Viareggio )"
  },
  {
    "lng" : "13.85",
    "lat" : "-21.516666666667",
    "country" : "Namibia",
    "name" : "Bocock's Bay"
  },
  {
    "lng" : "73.4649257361889",
    "lat" : "5.33081993756671",
    "country" : "Maldives",
    "name" : "bodu kanmathi"
  },
  {
    "lng" : "2.2073721885681",
    "lat" : "41.39279527063",
    "country" : "Spain, Mediterranean",
    "name" : "BOGATELL"
  },
  {
    "lng" : "9.0692245960236",
    "lat" : "44.377375108454",
    "country" : "Italy, Mainland",
    "name" : "Bogliasco"
  },
  {
    "lng" : "8.404959440231",
    "lat" : "56.98195829441",
    "country" : "Denmark",
    "name" : "bogsted"
  },
  {
    "lng" : "-75.492140650749",
    "lat" : "35.716543680981",
    "country" : "USA, South East, North Carolina",
    "name" : "Boiler"
  },
  {
    "lng" : "-124.06259536743",
    "lat" : "44.830765211447",
    "country" : "USA, North West, Oregon North",
    "name" : "Boiler bay"
  },
  {
    "lng" : "-4.2118205130108",
    "lat" : "51.53760965235",
    "country" : "UK, South Wales",
    "name" : "Boiler Reef"
  },
  {
    "lng" : "-9.8782861232758",
    "lat" : "30.624452083731",
    "country" : "Morocco, South",
    "name" : "Boilers"
  },
  {
    "lng" : "153.10022234917",
    "lat" : "-26.379327129671",
    "country" : "Australia, QLD, Sunshine Coast",
    "name" : "Boiling Pot"
  },
  {
    "lng" : "-32.43169426918",
    "lat" : "-3.8454574037005",
    "country" : "Brazil, Fernando do Noronha",
    "name" : "Boldró"
  },
  {
    "lng" : "-9.3942761421204",
    "lat" : "38.701570835144",
    "country" : "Portugal, Central Lisboa",
    "name" : "Bolina"
  },
  {
    "lng" : "-122.68372535706",
    "lat" : "37.903802685374",
    "country" : "USA, California, SF Marin",
    "name" : "Bolinas"
  },
  {
    "lng" : "-94.46551322937",
    "lat" : "29.519919572792",
    "country" : "USA, Gulf Coast, Texas",
    "name" : "Bolivar"
  },
  {
    "lng" : "-118.04946899414",
    "lat" : "33.696637053472",
    "country" : "USA, California, Orange County",
    "name" : "Bolsa Chica"
  },
  {
    "lng" : "-48.506784439087",
    "lat" : "-27.140118080163",
    "country" : "Brazil, Santa Catarina North",
    "name" : "Bombas"
  },
  {
    "lng" : "174.79623436827",
    "lat" : "-41.344189170409",
    "country" : "New Zealand, New Zealand NI, South East Coast",
    "name" : "Bombers"
  },
  {
    "lng" : "151.75736367702",
    "lat" : "-32.951770150005",
    "country" : "Australia, NSW, Newcastle",
    "name" : "Bombie"
  },
  {
    "lng" : "-48.489532470703",
    "lat" : "-27.148366835382",
    "country" : "Brazil, Santa Catarina North",
    "name" : "Bombinhas"
  },
  {
    "lng" : "150.85520267487",
    "lat" : "-34.657427754893",
    "country" : "Australia, NSW, South Coast",
    "name" : "Bombo"
  },
  {
    "lng" : "-157.84873008728",
    "lat" : "21.28275640146",
    "country" : "USA, Hawaii, Oahu",
    "name" : "Bomboras"
  },
  {
    "lng" : "151.27881467342",
    "lat" : "-33.892590076675",
    "country" : "Australia, NSW, Sydney South",
    "name" : "Bondi Beach"
  },
  {
    "lng" : "-121.14547848701",
    "lat" : "35.608870798951",
    "country" : "USA, California, San Luis Obispo",
    "name" : "Boners"
  },
  {
    "lng" : "-45.347785949707",
    "lat" : "-23.917382667104",
    "country" : "Brazil, Sao Paulo North Coast",
    "name" : "Bonete"
  },
  {
    "lng" : "150.86048662663",
    "lat" : "-34.64825346802",
    "country" : "Australia, NSW, South Coast",
    "name" : "Boneyard"
  },
  {
    "lng" : "-156.67796730995",
    "lat" : "20.867223097275",
    "country" : "USA, Hawaii, Maui",
    "name" : "Boneyard"
  },
  {
    "lng" : "-3.3699703216553",
    "lat" : "50.608667040992",
    "country" : "UK, Devon South",
    "name" : "BoneYard Exmouth"
  },
  {
    "lng" : "-117.29773163795",
    "lat" : "33.037219185737",
    "country" : "USA, California, San Diego County",
    "name" : "Boneyards"
  },
  {
    "lng" : "24.934372901917",
    "lat" : "-34.03454151962",
    "country" : "South Africa, South J Bay",
    "name" : "Boneyards"
  },
  {
    "lng" : "-4.2417526245117",
    "lat" : "51.131753979786",
    "country" : "UK, Devon North",
    "name" : "Boneyards"
  },
  {
    "lng" : "-71.418170928955",
    "lat" : "41.482026334032",
    "country" : "USA, North East, Southern New England",
    "name" : "Bonnet Shores Point"
  },
  {
    "lng" : "102.55531311035",
    "lat" : "0.17409870268999",
    "country" : "Indonesia, Sumatra Mainland",
    "name" : "Bono"
  },
  {
    "lng" : "27.967479228973",
    "lat" : "-32.975440038255",
    "country" : "South Africa, East London",
    "name" : "Bonza Bay"
  },
  {
    "lng" : "-5.0241851806641",
    "lat" : "50.536126142797",
    "country" : "UK, Cornwall North",
    "name" : "Boobies"
  },
  {
    "lng" : "114.99750137329",
    "lat" : "-34.010763682125",
    "country" : "Australia, WA, Margaret River South",
    "name" : "Boodjidup"
  },
  {
    "lng" : "145.28284907341",
    "lat" : "-38.510568755997",
    "country" : "Australia, VIC, Melbourne East, Phillip Island",
    "name" : "boofs"
  },
  {
    "lng" : "138.66711616516",
    "lat" : "-35.536486845646",
    "country" : "Australia, SA, York Peninsula",
    "name" : "Booma"
  },
  {
    "lng" : "152.54138946533",
    "lat" : "-32.339650636118",
    "country" : "Australia, NSW, Mid North Coast",
    "name" : "Boomerang Beach"
  },
  {
    "lng" : "152.52336502075",
    "lat" : "-32.312089734677",
    "country" : "Australia, NSW, Mid North Coast",
    "name" : "Booti Booti National Park"
  },
  {
    "lng" : "-15.560878515244",
    "lat" : "28.14667468655",
    "country" : "Canary, Gran Canaria",
    "name" : "Boquines"
  },
  {
    "lng" : "146.36508822441",
    "lat" : "-41.165732428402",
    "country" : "Australia, TAS, North Coast",
    "name" : "Bora"
  },
  {
    "lng" : "115.02822875977",
    "lat" : "-34.165795245182",
    "country" : "Australia, WA, Margaret River South",
    "name" : "Boranup Beach"
  },
  {
    "lng" : "5.5492115020752",
    "lat" : "58.799427470845",
    "country" : "Norway",
    "name" : "Bore"
  },
  {
    "lng" : "-35.003128051758",
    "lat" : "-8.4996222969949",
    "country" : "Brazil, Paraiba Pernambucco",
    "name" : "Borete"
  },
  {
    "lng" : "6.6438102722168",
    "lat" : "53.611145683036",
    "country" : "Germany",
    "name" : "Borkum, Nordstrand"
  },
  {
    "lng" : "6.6553544998169",
    "lat" : "53.58563973762",
    "country" : "Germany",
    "name" : "Borkum, Weststrand"
  },
  {
    "lng" : "8.1424999237061",
    "lat" : "55.673531072556",
    "country" : "Denmark",
    "name" : "borsmose"
  },
  {
    "lng" : "-1.8436002731323",
    "lat" : "50.718797404754",
    "country" : "UK, South",
    "name" : "Boscombe Pier"
  },
  {
    "lng" : "18.07347536087",
    "lat" : "-31.536421541113",
    "country" : "South Africa, West Coast",
    "name" : "Boskraal Strand"
  },
  {
    "lng" : "x",
    "lat" : "x",
    "country" : "Canada, Great Lakes",
    "name" : "Bothwell beach"
  },
  {
    "lng" : "55.224580764771",
    "lat" : "-21.0283503227",
    "country" : "Reunion",
    "name" : "Boucan Left"
  },
  {
    "lng" : "55.225121900439",
    "lat" : "-21.026943303024",
    "country" : "Reunion",
    "name" : "Boucan Right"
  },
  {
    "lng" : "21.648369133472",
    "lat" : "36.992960032356",
    "country" : "Greece, Pelloponisos",
    "name" : "Bouka"
  },
  {
    "lng" : "153.60658049583",
    "lat" : "-28.811005610382",
    "country" : "Australia, NSW, North",
    "name" : "Boulder Beach"
  },
  {
    "lng" : "152.19025611877",
    "lat" : "-32.698766399294",
    "country" : "Australia, NSW, Newcastle",
    "name" : "Boulders"
  },
  {
    "lng" : "-1.8756580352783",
    "lat" : "50.715074848905",
    "country" : "UK, South",
    "name" : "Bournemouth Pier"
  },
  {
    "lng" : "-7.84423828125",
    "lat" : "33.47727218776",
    "country" : "Morocco, North",
    "name" : "Bouznika"
  },
  {
    "lng" : "-135.65986633301",
    "lat" : "53.307082877446",
    "country" : "Canada, West Coast",
    "name" : "Bowie Seamount"
  },
  {
    "lng" : "152.18544960022",
    "lat" : "-32.720396197612",
    "country" : "Australia, NSW, Newcastle",
    "name" : "Box Beach"
  },
  {
    "lng" : "151.34387969971",
    "lat" : "-33.544828460754",
    "country" : "Australia, NSW, Central",
    "name" : "Box Head - Umina"
  },
  {
    "lng" : "-80.042374134064",
    "lat" : "26.545287540158",
    "country" : "USA, South East, South Florida",
    "name" : "Boynton - tortuga beach"
  },
  {
    "lng" : "-72.897441387177",
    "lat" : "40.721176823505",
    "country" : "USA, North East, Long Island NY",
    "name" : "BP"
  },
  {
    "lng" : "-70.648055076599",
    "lat" : "42.58705569572",
    "country" : "USA, North East, Northern New England",
    "name" : "Brace Cove"
  },
  {
    "lng" : "-0.86068868637085",
    "lat" : "50.760241799345",
    "country" : "UK, South East",
    "name" : "Bracklesham Bay"
  },
  {
    "lng" : "-82.697058320045",
    "lat" : "27.459902999666",
    "country" : "USA, Gulf Coast, Florida",
    "name" : "Bradenton- twin piers"
  },
  {
    "lng" : "-74.006052017212",
    "lat" : "40.197920921737",
    "country" : "USA, North East, New Jersey",
    "name" : "Bradley Beach"
  },
  {
    "lng" : "8.2990765571594",
    "lat" : "54.912633055151",
    "country" : "Germany",
    "name" : "Brandenburg (Sylt, Westerland)"
  },
  {
    "lng" : "-59.608367085457",
    "lat" : "13.077200057971",
    "country" : "Barbados",
    "name" : "Brandon"
  },
  {
    "lng" : "-10.032770633698",
    "lat" : "52.289411981363",
    "country" : "Ireland, South West",
    "name" : "Brandon Bay"
  },
  {
    "lng" : "14.346599578857",
    "lat" : "55.51925352594",
    "country" : "Sweden",
    "name" : "Brantevik"
  },
  {
    "lng" : "-85.802986621857",
    "lat" : "10.4053030712",
    "country" : "Costa Rica, Guanacaste",
    "name" : "Brasilito"
  },
  {
    "lng" : "-44.799858927727",
    "lat" : "-23.370962677392",
    "country" : "Brazil, Sao Paulo North Coast",
    "name" : "Brava do Camburi"
  },
  {
    "lng" : "151.15711212158",
    "lat" : "-34.053014984248",
    "country" : "Australia, NSW, Sydney South",
    "name" : "Braymains"
  },